[
    {
        "name": "LE HELLOCO Alain",
        "specialties": "Cardiologie et maladies vasculaires",
        "other_disciplines": "Médecine nucléaire",
        "address": "AV LA BATAILLE FLANDRE DUNKERQUE, 35000 RENNES",
        "phone": "0299253080",
        "sexe": "Homme",
        "lat": 48.1119795,
        "lon": -1.691532
    },
    {
        "name": "BOTTE Martine",
        "specialties": "Médecine générale",
        "other_disciplines": "",
        "address": "INSPECTION ACADEMIQUE, 1 QUAI DUJARDIN, 35000 RENNES",
        "phone": "",
        "sexe": "Femme",
        "lat": 48.1119795,
        "lon": -1.691532
    },
    {
        "name": "HOUDAYER Carole",
        "specialties": "Médecine générale",
        "other_disciplines": "Allergologie",
        "address": "POLYCLINIQUE SAINT LAURENT, 320 AVENUE GENERAL GEORGE PATTON, 35700 RENNES",
        "phone": "",
        "sexe": "Femme",
        "lat": 48.1377346,
        "lon": -1.6572178
    },
    {
        "name": "RACLE Agnès",
        "specialties": "Médecine générale",
        "other_disciplines": "Evaluation et tratement de la douleur",
        "address": "PETITES SOEURS DES PAUVRES, 122 AVENUE DU GENERAL LECLERC, 35700 RENNES",
        "phone": "",
        "sexe": "Femme",
        "lat": 48.1323128,
        "lon": -1.6575847
    },
    {
        "name": "SEBILLE Remi",
        "specialties": "Psychiatrie",
        "other_disciplines": "",
        "address": "C H GUILLAUME REGNIER, 108 AVENUE DU GENERAL LECLERC, BOITE POSTALE 60321, 35703 RENNES CEDEX 7",
        "phone": "",
        "sexe": "Homme",
        "lat": 48.114603,
        "lon": -1.651699
    },
    {
        "name": "AUTRET Katell",
        "specialties": "Médecine physique et de réadaptation",
        "other_disciplines": "",
        "address": "POLE MPR SAINT HELIER, 54 RUE SAINT HELIER, CS 74330, 35043 RENNES CEDEX",
        "phone": "0299295099",
        "sexe": "Femme",
        "lat": 48.106452,
        "lon": -1.669549
    },
    {
        "name": "CHAPPLAIN Jean-Marc",
        "specialties": "Santé publique et médecine sociale",
        "other_disciplines": "Médecine tropicalePathologie infectieuse et tropicale, clinique et biologique",
        "address": "CHRU PONTCHAILLOU, CLINIQUE MALADIES INFECTIEUSES, 2 RUE HENRI LE GUILLOUX, 35033 RENNES CEDEX 9",
        "phone": "0299284287",
        "sexe": "Homme",
        "lat": 48.11878,
        "lon": -1.693679
    },
    {
        "name": "BREGAND Marie-Caroline",
        "specialties": "Médecine générale",
        "other_disciplines": "",
        "address": "118 BOULEVARD VILLEBOIS MAREUIL, 35000 RENNES",
        "phone": "",
        "sexe": "Femme",
        "lat": 48.1010806,
        "lon": -1.6498592
    },
    {
        "name": "THIEBAULT Isabelle",
        "specialties": "Médecine générale",
        "other_disciplines": "",
        "address": "E.L.S.M., B.P. 40602, 35006 RENNES CEDEX",
        "phone": "",
        "sexe": "Femme",
        "lat": 48.110899,
        "lon": -1.68365
    },
    {
        "name": "SARAVAYA Jerome",
        "specialties": "Médecine générale",
        "other_disciplines": "",
        "address": "3 ALLEE ANGELIQUE DU COUDRAY, 35000 RENNES",
        "phone": "0299058277",
        "sexe": "Homme",
        "lat": 48.1175132,
        "lon": -1.6798585
    },
    {
        "name": "GRANIER-JUANICO Agnes",
        "specialties": "Médecine générale",
        "other_disciplines": "Angéiologie",
        "address": "41 RUE MARCEL PLANIOL, 35000 RENNES",
        "phone": "0299509750",
        "sexe": "Femme",
        "lat": 48.102258,
        "lon": -1.6499499
    },
    {
        "name": "MILLET Chloe",
        "specialties": "Médecine générale",
        "other_disciplines": "",
        "address": "1 AVENUE HENRI FREVILLE, 35200 RENNES",
        "phone": "0299640503",
        "sexe": "Femme",
        "lat": 48.0932786,
        "lon": -1.6734288
    },
    {
        "name": "GAUCHET Anne-Sophie",
        "specialties": "Médecine générale",
        "other_disciplines": "",
        "address": "POLYCLINIQUE SAINT LAURENT, 320 AVENUE GENERAL GEORGES PATTON, 35006 RENNES CEDEX",
        "phone": "",
        "sexe": "Femme",
        "lat": 48.137656,
        "lon": -1.658287
    },
    {
        "name": "JARNO-JOSSE Anna",
        "specialties": "Médecine générale",
        "other_disciplines": "",
        "address": "53 CCAL PRESIDENT KENNEDY, 35000 RENNES",
        "phone": "0299339077",
        "sexe": "Femme",
        "lat": 48.1119795,
        "lon": -1.691532
    },
    {
        "name": "RABIN Dominique",
        "specialties": "Médecine générale",
        "other_disciplines": "",
        "address": "ELSM 35, COURS DES ALLIES, BP 40602, 35006 RENNES CEDEX",
        "phone": "",
        "sexe": "Homme",
        "lat": 48.10528,
        "lon": -1.676035
    },
    {
        "name": "MOQUET Armelle",
        "specialties": "Médecine générale",
        "other_disciplines": "",
        "address": "GROUPE MEDICAL DE LA BELLANGERAIS, 10 RUE DU MORBIHAN, 35700 RENNES",
        "phone": "0299630787",
        "sexe": "Femme",
        "lat": 48.1323128,
        "lon": -1.6575847
    },
    {
        "name": "CHATMI Valerie",
        "specialties": "Médecine générale",
        "other_disciplines": "",
        "address": "ASSOCIATION SANTE AU TRAVAIL 35, 3 ALLEE DE LA CROIX DES HETRES, 35700 RENNES",
        "phone": "",
        "sexe": "Femme",
        "lat": 48.1323128,
        "lon": -1.6575847
    },
    {
        "name": "HAYS Sophie",
        "specialties": "Médecine générale",
        "other_disciplines": "",
        "address": "BIOTRIAL, 7 RUE JEAN LOUIS BERTRAND, 35000 RENNES",
        "phone": "",
        "sexe": "Femme",
        "lat": 48.1119795,
        "lon": -1.691532
    },
    {
        "name": "RENAUD Marine",
        "specialties": "Médecine générale",
        "other_disciplines": "",
        "address": "2 RUE MARECHAL JOFFRE, 35000 RENNES",
        "phone": "0223212241",
        "sexe": "Femme",
        "lat": 48.109162,
        "lon": -1.6779826
    },
    {
        "name": "LANDEMAINE Olivier",
        "specialties": "Médecine générale",
        "other_disciplines": "",
        "address": "MAISON DE SANTE RENNES SUD, 11 AVENUE DE POLOGNE, 35200 RENNES",
        "phone": "0299506058",
        "sexe": "Homme",
        "lat": 48.0893383,
        "lon": -1.6631727
    },
    {
        "name": "POREE Laurence",
        "specialties": "Médecine générale",
        "other_disciplines": "",
        "address": "CHU PONTCHAILLOU, D.I.M., 2 RUE HENRI LE GUILLOUX, 35033 RENNES CEDEX 9",
        "phone": "0299284321",
        "sexe": "Femme",
        "lat": 48.11878,
        "lon": -1.693679
    },
    {
        "name": "MAXIMIN-LE BIHAN Valerie",
        "specialties": "Médecine générale",
        "other_disciplines": "",
        "address": "CPAM 35, E.L.S.M., COURS DES ALLIES, 35024 RENNES CEDEX 9",
        "phone": "",
        "sexe": "Femme",
        "lat": 48.110899,
        "lon": -1.68365
    },
    {
        "name": "LE SCOLAN-QUERE Catherine",
        "specialties": "Médecine générale",
        "other_disciplines": "",
        "address": "59 RUE DE RIAVAL, 35000 RENNES",
        "phone": "0299511414",
        "sexe": "Femme",
        "lat": 48.0990398,
        "lon": -1.6640572
    },
    {
        "name": "CARIO Thomas",
        "specialties": "Gériatrie",
        "other_disciplines": "",
        "address": "CHU PONTCHAILLOU, 2 RUE HENRI LE GUILLOUX, 35033 RENNES CEDEX 9",
        "phone": "0299284321",
        "sexe": "Homme",
        "lat": 48.11878,
        "lon": -1.693679
    },
    {
        "name": "GAIGNON Théophane",
        "specialties": "Médecine générale",
        "other_disciplines": "",
        "address": "CHU PONTCHAILLOU, SAMU CENTRE 15, 2 RUE HENRI LE GUILLOUX, 35000 RENNES",
        "phone": "",
        "sexe": "Homme",
        "lat": 48.1119795,
        "lon": -1.691532
    },
    {
        "name": "LAHJAOUZI Ahmed",
        "specialties": "Médecine générale",
        "other_disciplines": "",
        "address": "C.H.R.U PONTCHAILLOU, 2 RUE HENRI LE GUILLOUX, 35033 RENNES CEDEX 9",
        "phone": "",
        "sexe": "Homme",
        "lat": 48.11878,
        "lon": -1.693679
    },
    {
        "name": "DANCOISNE Sylvie",
        "specialties": "Médecine générale",
        "other_disciplines": "",
        "address": "E.L.S.M. 35, COURS DES ALLIES, BP 40602, 35006 RENNES CEDEX",
        "phone": "",
        "sexe": "Femme",
        "lat": 48.10528,
        "lon": -1.676035
    },
    {
        "name": "VIEL Myrtille",
        "specialties": "Médecine générale",
        "other_disciplines": "",
        "address": "CHU PONTCHAILLOU, 2 RUE HENRI LE GUILLOUX, 35033 RENNES CEDEX 9",
        "phone": "",
        "sexe": "Femme",
        "lat": 48.11878,
        "lon": -1.693679
    },
    {
        "name": "PERRIGAULT Emilie",
        "specialties": "Médecine générale",
        "other_disciplines": "",
        "address": "DEPARTEMENT 35, 1 AVENUE DE LA PREFECTURE, CS 24218, 35042 RENNES CEDEX",
        "phone": "",
        "sexe": "Femme",
        "lat": 48.127132,
        "lon": -1.693496
    },
    {
        "name": "TISSIER Anne",
        "specialties": "Médecine générale",
        "other_disciplines": "Médecine d'urgence",
        "address": "CLINIQUE LA SAGESSE, 4 PLACE SAINT GUENOLE, CS 4445, 35043 RENNES CEDEX",
        "phone": "",
        "sexe": "Femme",
        "lat": 48.100804,
        "lon": -1.712399
    },
    {
        "name": "BUET Manuel",
        "specialties": "Médecine générale",
        "other_disciplines": "",
        "address": "SOS MEDECINS, 106 RUE EUGENE POTTIER, 35000 RENNES",
        "phone": "0299530606",
        "sexe": "Homme",
        "lat": 48.1119795,
        "lon": -1.691532
    },
    {
        "name": "LEVREL Vincent",
        "specialties": "Médecine d'urgence",
        "other_disciplines": "Médecine d'urgence",
        "address": "CHU PONTCHAILLOU, 2 RUE HENRI LE GUILLOUX, 35033 RENNES CEDEX 9",
        "phone": "",
        "sexe": "Homme",
        "lat": 48.11878,
        "lon": -1.693679
    },
    {
        "name": "NABHAN Nidal",
        "specialties": "Psychiatrie",
        "other_disciplines": "",
        "address": "C.H.G.R., 108 AVENUE DU GENERAL LECLERC, BP 60321, 35703 RENNES CEDEX 7",
        "phone": "",
        "sexe": "Femme",
        "lat": 48.114603,
        "lon": -1.651699
    },
    {
        "name": "GUIHO Mylene",
        "specialties": "Médecine générale",
        "other_disciplines": "",
        "address": "CHU HOPITAL SUD, 16 BOULEVARD DE BULGARIE, BP 90347, 35203 RENNES CEDEX 2",
        "phone": "",
        "sexe": "Femme",
        "lat": 48.083876,
        "lon": -1.653382
    },
    {
        "name": "LEBRET-SEVESTRE Anne-Francoise",
        "specialties": "Médecine générale",
        "other_disciplines": "",
        "address": "CENTRE EXAMENS DE SANTE, 3 PLACE DU COLOMBIER, 35000 RENNES",
        "phone": "",
        "sexe": "Femme",
        "lat": 48.1119795,
        "lon": -1.691532
    },
    {
        "name": "LEMARIE Bruno",
        "specialties": "Médecine générale",
        "other_disciplines": "",
        "address": "SAMU CENTRE 15, 2 RUE HENRI LE GUILLOUX, 35000 RENNES",
        "phone": "",
        "sexe": "Homme",
        "lat": 48.1234394,
        "lon": -1.698907
    },
    {
        "name": "LEROY Baptiste",
        "specialties": "Médecine générale",
        "other_disciplines": "",
        "address": "6 SQUARE RENE CASSIN, 35700 RENNES",
        "phone": "0299384378",
        "sexe": "Homme",
        "lat": 48.1301789,
        "lon": -1.6344433
    },
    {
        "name": "MILON Alice",
        "specialties": "Médecine générale",
        "other_disciplines": "Médecine légale et expertises médicalesDU Réparation juridique de dommage corporel",
        "address": "CHU PONTCHAILLOU, 2 RUE HENRI LE GUILLOUX, 35033 RENNES CEDEX 9",
        "phone": "",
        "sexe": "Femme",
        "lat": 48.11878,
        "lon": -1.693679
    },
    {
        "name": "GENESTIER Sandrine",
        "specialties": "Néphrologie",
        "other_disciplines": "",
        "address": "DIALYSE A DOMICILE, RUE HENRI LE GUILLOUX, 35000 RENNES",
        "phone": "0299547320",
        "sexe": "Femme",
        "lat": 48.1119795,
        "lon": -1.691532
    },
    {
        "name": "LE GUILCHER Claire",
        "specialties": "Médecine générale",
        "other_disciplines": "",
        "address": "INSPECTION ACADEMIQUE 35, 1 QUAI DUJARDIN, 35031 RENNES CEDEX",
        "phone": "",
        "sexe": "Femme",
        "lat": 48.110327,
        "lon": -1.671604
    },
    {
        "name": "PRANG Guillaume",
        "specialties": "Médecine générale",
        "other_disciplines": "",
        "address": "7 RUE POULLART DES PLACES, 35700 RENNES",
        "phone": "0299122000",
        "sexe": "Homme",
        "lat": 48.129536,
        "lon": -1.6593163
    },
    {
        "name": "LE GALL-LANGLAIS Marie-Christi",
        "specialties": "Médecine générale",
        "other_disciplines": "Angéiologie",
        "address": "4 PLACE DU CALVAIRE, 35000 RENNES",
        "phone": "0299781550",
        "sexe": "Femme",
        "lat": 48.1106796,
        "lon": -1.681264
    },
    {
        "name": "SUGRANES Pauline",
        "specialties": "Médecine générale",
        "other_disciplines": "",
        "address": "CHU PONTCHAILLOU, 2 RUE HENRI LE GUILLOUX, 35033 RENNES CEDEX 9",
        "phone": "",
        "sexe": "Femme",
        "lat": 48.11878,
        "lon": -1.693679
    },
    {
        "name": "NOUVELLON Marion",
        "specialties": "Médecine générale",
        "other_disciplines": "",
        "address": "EHPAD RESIDENCE DU GAST, 10 RUE DE LA PERRIERE, 35700 RENNES",
        "phone": "0299631095",
        "sexe": "Femme",
        "lat": 48.1323128,
        "lon": -1.6575847
    },
    {
        "name": "COGNE Michel",
        "specialties": "Biologie médicale",
        "other_disciplines": "",
        "address": "CHU PONTCHAILLOU, SERVICE D'IMMUNOLOGIE, 2 RUE HENRI LE GUILLOUX, 35033 RENNES CEDEX 9",
        "phone": "",
        "sexe": "Homme",
        "lat": 48.11878,
        "lon": -1.693679
    },
    {
        "name": "PIGNON Sophie",
        "specialties": "Médecine physique et de réadaptation",
        "other_disciplines": "GérontologieDIU Réparation juridique du dommage corporel",
        "address": "POLE MPR SAINT HELIER, 54 RUE SAINT HELIER, CS 74330, 35043 RENNES CEDEX",
        "phone": "",
        "sexe": "Femme",
        "lat": 48.106452,
        "lon": -1.669549
    },
    {
        "name": "DEHAYE Remi",
        "specialties": "Médecine générale",
        "other_disciplines": "",
        "address": "SOS MEDECINS, 106 RUE EUGENE POTTIER, 35000 RENNES",
        "phone": "0299530606",
        "sexe": "Homme",
        "lat": 48.1119795,
        "lon": -1.691532
    },
    {
        "name": "KACI Florya",
        "specialties": "Médecine générale",
        "other_disciplines": "DIU Accueil des urgences en service pédiatriqueDiplômes relatifs + réparation juridique du dommage corporel",
        "address": "27 BOULEVARD SOLFERINO, 35000 RENNES",
        "phone": "0299313999",
        "sexe": "Femme",
        "lat": 48.1046879,
        "lon": -1.6685101
    },
    {
        "name": "CHEROT Elouan",
        "specialties": "Médecine générale",
        "other_disciplines": "",
        "address": "HAD 35, 7 ROUTE VEZIN, 35000 RENNES",
        "phone": "",
        "sexe": "Homme",
        "lat": 48.1119795,
        "lon": -1.691532
    },
    {
        "name": "LHUISSIER-DEBRY Nathalie",
        "specialties": "Médecine du travail",
        "other_disciplines": "",
        "address": "ASSOCIATION SANTE AU TRAVAIL 35, 3 ALLEE DE LA CROIX DES HETRES, 35700 RENNES",
        "phone": "",
        "sexe": "Femme",
        "lat": 48.1323128,
        "lon": -1.6575847
    },
    {
        "name": "LEFORT Denis",
        "specialties": "Médecine générale",
        "other_disciplines": "",
        "address": "1 SQUARE DU ROI ARTHUR, 35000 RENNES",
        "phone": "0299351244",
        "sexe": "Homme",
        "lat": 48.105551,
        "lon": -1.6811252
    },
    {
        "name": "LAUNAY Thierry",
        "specialties": "Psychiatrie",
        "other_disciplines": "",
        "address": "8 RUE DES FOSSES, 35000 RENNES",
        "phone": "",
        "sexe": "Homme",
        "lat": 48.1135808,
        "lon": -1.6769517
    },
    {
        "name": "DESHAYES Stephane",
        "specialties": "Médecine générale",
        "other_disciplines": "Médecine et biologie du sport",
        "address": "ELSM, COURS DES ALLIES, 35006 RENNES CEDEX",
        "phone": "",
        "sexe": "Homme",
        "lat": 48.10528,
        "lon": -1.676035
    },
    {
        "name": "COLASSON Xavier",
        "specialties": "Médecine générale",
        "other_disciplines": "Médecine d'urgenceMédecine de catastropheDiplômes relatifs + réparation juridique du dommage corporel",
        "address": "PERMANENCE 7J/7, 4 RUE J MAILLARD DE LA GOURNERIE, 35000 RENNES",
        "phone": "",
        "sexe": "Homme",
        "lat": 48.1119795,
        "lon": -1.691532
    },
    {
        "name": "ROSSIGNOL Denis",
        "specialties": "Médecine générale",
        "other_disciplines": "",
        "address": "2 RUE MARECHAL JOFFRE, 35000 RENNES",
        "phone": "0299794419",
        "sexe": "Homme",
        "lat": 48.109162,
        "lon": -1.6779826
    },
    {
        "name": "BOUDJEMA Karim",
        "specialties": "Chirurgie générale",
        "other_disciplines": "",
        "address": "CHU PONTCHAILLOU, 2 RUE HENRI LE GUILLOUX, 35033 RENNES CEDEX 9",
        "phone": "",
        "sexe": "Homme",
        "lat": 48.11878,
        "lon": -1.693679
    },
    {
        "name": "LE FEVRE Anne-Marie",
        "specialties": "Médecine générale",
        "other_disciplines": "",
        "address": "CENTRE DEPARTEMENTAL DE PMI, 1 AVENUE DE LA PREFECTURE, CS 24218, 35042 RENNES CEDEX",
        "phone": "0299023805",
        "sexe": "Femme",
        "lat": 48.127132,
        "lon": -1.693496
    },
    {
        "name": "DANTEC Nathalie",
        "specialties": "Médecine générale",
        "other_disciplines": "",
        "address": "C.H.  GUILLAUME REGNIER RENNES, 108 AVENUE DU GENERAL LECLERC, BP 60321, 35000 RENNES",
        "phone": "",
        "sexe": "Femme",
        "lat": 48.1119795,
        "lon": -1.691532
    },
    {
        "name": "BOURCE Jerome",
        "specialties": "Médecine générale",
        "other_disciplines": "",
        "address": "2 PLACE DE BRETAGNE, 35000 RENNES",
        "phone": "0986539702",
        "sexe": "Homme",
        "lat": 48.1095116,
        "lon": -1.68489
    },
    {
        "name": "BRAULT Jean-Christophe",
        "specialties": "Médecine générale",
        "other_disciplines": "",
        "address": "BIOTRIAL, 7 RUE JEAN LOUIS BERTRAND, 35000 RENNES",
        "phone": "",
        "sexe": "Homme",
        "lat": 48.1119795,
        "lon": -1.691532
    },
    {
        "name": "SOULAT Louis",
        "specialties": "Médecine d'urgence",
        "other_disciplines": "Médecine d'urgenceMédecine de catastropheDIU Médecine subaquatique et Hyperbare",
        "address": "CHU PONTCHAILLOU, 2 RUE HENRI LE GUILLOUX, 35033 RENNES CEDEX 9",
        "phone": "0299284321",
        "sexe": "Homme",
        "lat": 48.110899,
        "lon": -1.68365
    },
    {
        "name": "BODIN Jean Marie",
        "specialties": "Anesthésie-réanimation",
        "other_disciplines": "",
        "address": "C.H.R.U PONTCHAILLOU, 2 RUE HENRI LE GUILLOUX, 35033 RENNES CEDEX 9",
        "phone": "",
        "sexe": "Homme",
        "lat": 48.110899,
        "lon": -1.68365
    },
    {
        "name": "SENTEIN Bernard",
        "specialties": "Médecine générale",
        "other_disciplines": "",
        "address": "SGAMI OUEST, 28 RUE DE LA PILATE, CS 40725, 35207 RENNES CEDEX 2",
        "phone": "",
        "sexe": "Non renseigné",
        "lat": 48.092033,
        "lon": -1.668603
    },
    {
        "name": "BRAULT Claudine",
        "specialties": "Médecine générale",
        "other_disciplines": "",
        "address": "CENTRE DEPARTEMENTAL DE PMI, 1 AVENUE DE LA PREFECTURE, CS 24218, 35042 RENNES CEDEX",
        "phone": "",
        "sexe": "Femme",
        "lat": 48.127132,
        "lon": -1.693496
    },
    {
        "name": "MAHE Soazig",
        "specialties": "Médecine générale",
        "other_disciplines": "",
        "address": "DSDEN D'ILLE ET VILAINE, 1 QUAI DUJARDIN, CS 73145, 35031 RENNES CEDEX",
        "phone": "",
        "sexe": "Femme",
        "lat": 48.110327,
        "lon": -1.671604
    },
    {
        "name": "ALLORY Emmanuel",
        "specialties": "Médecine générale",
        "other_disciplines": "",
        "address": "53 CCAL PRESIDENT KENNEDY, 35000 RENNES",
        "phone": "0299339077",
        "sexe": "Homme",
        "lat": 48.1119795,
        "lon": -1.691532
    },
    {
        "name": "LEMOINE Mathilde",
        "specialties": "Médecine générale",
        "other_disciplines": "",
        "address": "42 RUE MARC SANGNIER, 35200 RENNES",
        "phone": "",
        "sexe": "Femme",
        "lat": 48.0930904,
        "lon": -1.6557818
    },
    {
        "name": "KOUYATE Aline",
        "specialties": "Médecine générale",
        "other_disciplines": "",
        "address": "CENTRE DE SANTE ST HELIER, 54 RUE SAINT-HELIER, CS 74330, 35043 RENNES CEDEX",
        "phone": "",
        "sexe": "Femme",
        "lat": 48.106452,
        "lon": -1.669549
    },
    {
        "name": "COUSANCA Julien",
        "specialties": "Médecine générale",
        "other_disciplines": "",
        "address": "54 BOULEVARD GEORGES CLEMENCEAU, 35200 RENNES",
        "phone": "0223612665",
        "sexe": "Homme",
        "lat": 48.0943692,
        "lon": -1.6851099
    },
    {
        "name": "BELLOIR Claire",
        "specialties": "Médecine du travail",
        "other_disciplines": "",
        "address": "DEPARTEMENT D'ILLE ET VILAINE, ACTION SOCIALE ET SANTE AU TRAVAIL, 1 AVENUE DE LA PREFECTURE, CS  24218, 35042 RENNES CEDEX",
        "phone": "",
        "sexe": "Femme",
        "lat": 48.110899,
        "lon": -1.68365
    },
    {
        "name": "LOUPPE Albert",
        "specialties": "Psychiatrie option enfant adolescent",
        "other_disciplines": "",
        "address": "78 RUE SAINT HELIER, 35000 RENNES",
        "phone": "0299277068",
        "sexe": "Homme",
        "lat": 48.1059193,
        "lon": -1.6677252
    },
    {
        "name": "LEGRU Nicolas",
        "specialties": "Médecine générale",
        "other_disciplines": "Médecine et biologie du sportDIU Médecine Manuelle et d'Ostéopathie",
        "address": "9 SQUARE DU GENERAL KOENIG, 35000 RENNES",
        "phone": "0299791513",
        "sexe": "Homme",
        "lat": 48.1053553,
        "lon": -1.6823887
    },
    {
        "name": "PANHELLEUX Stephane",
        "specialties": "Médecine générale",
        "other_disciplines": "",
        "address": "11 QUAI D ILLE ET RANCE, 35000 RENNES",
        "phone": "0299350505",
        "sexe": "Homme",
        "lat": 48.1111392,
        "lon": -1.6868271
    },
    {
        "name": "BUNEL-THIRION Cecile",
        "specialties": "Médecine générale",
        "other_disciplines": "",
        "address": "CENTRE D'EXAMENS DE SANTE, LE SULLY, 3 PLACE DU COLOMBIER, 35000 RENNES",
        "phone": "",
        "sexe": "Femme",
        "lat": 48.1119795,
        "lon": -1.691532
    },
    {
        "name": "STALIN-MULLER Catherine",
        "specialties": "Médecine générale",
        "other_disciplines": "",
        "address": "CENTRE DE SANTE UNIVERSITAIRE, CAMPUS BEAULIEU, BATIMENT 21, CS 74 205, 35042 RENNES CEDEX",
        "phone": "0223235505",
        "sexe": "Femme",
        "lat": 48.110899,
        "lon": -1.68365
    },
    {
        "name": "COSTES Marie",
        "specialties": "Médecine générale",
        "other_disciplines": "",
        "address": "CHU LA TAUVRAIS, 1 RUE DE LA TAUVRAIS, 35033 RENNES CEDEX 9",
        "phone": "0299274407",
        "sexe": "Femme",
        "lat": 48.138208,
        "lon": -1.65896
    },
    {
        "name": "DE CHARRY Soazig",
        "specialties": "Médecine générale",
        "other_disciplines": "",
        "address": "APPT 11, 60 MAIL FRANCOIS MITTERRAND, 35000 RENNES",
        "phone": "0299540856",
        "sexe": "Femme",
        "lat": 48.1119795,
        "lon": -1.691532
    },
    {
        "name": "FONTENEAU Aurelia",
        "specialties": "Médecine générale",
        "other_disciplines": "",
        "address": "43 RUE CHARLES GENIAUX, 35000 RENNES",
        "phone": "",
        "sexe": "Femme",
        "lat": 48.1120051,
        "lon": -1.7136827
    },
    {
        "name": "DAYAN Jacques",
        "specialties": "Psychiatrie",
        "other_disciplines": "Psychiatrie opt enfant adolescent",
        "address": "CMP ENFANTS  CHATILLON, 154 RUE DE CHATILLON, 35000 RENNES",
        "phone": "",
        "sexe": "Homme",
        "lat": 48.1119795,
        "lon": -1.691532
    },
    {
        "name": "COUTARD Gwenaelle",
        "specialties": "Médecine générale",
        "other_disciplines": "",
        "address": "HAD 35, 7 ROUTE VEZIN, 35000 RENNES",
        "phone": "",
        "sexe": "Femme",
        "lat": 48.1119795,
        "lon": -1.691532
    },
    {
        "name": "BROUX Pierre-Louis",
        "specialties": "Gynécologie-obstétrique",
        "other_disciplines": "",
        "address": "CLINIQUE LA SAGESSE, PLACE ST GWENOLE, CS 44345, 35043 RENNES CEDEX",
        "phone": "0299857575",
        "sexe": "Homme",
        "lat": 48.110899,
        "lon": -1.68365
    },
    {
        "name": "SEBILLE Florence",
        "specialties": "Psychiatrie",
        "other_disciplines": "",
        "address": "27 BOULEVARD MAGENTA, 35000 RENNES",
        "phone": "0299319642",
        "sexe": "Femme",
        "lat": 48.1052965,
        "lon": -1.6737504
    },
    {
        "name": "TERNAT Bertille",
        "specialties": "Médecine générale",
        "other_disciplines": "",
        "address": "CHRU RENNES SITE PONTCHAILLOU, PONTCHAILLOU, 2 RUE HENRI LE GUILLOUX, 35000 RENNES",
        "phone": "",
        "sexe": "Femme",
        "lat": 48.1119795,
        "lon": -1.691532
    },
    {
        "name": "MOREAU Magali",
        "specialties": "Médecine générale",
        "other_disciplines": "",
        "address": "POLE MPR SAINT HELIER, 54 RUE SAINT HELIER, CS 74330, 35000 RENNES",
        "phone": "",
        "sexe": "Femme",
        "lat": 48.1119795,
        "lon": -1.691532
    },
    {
        "name": "JEANNE Benjamin",
        "specialties": "Médecine générale",
        "other_disciplines": "",
        "address": "CHU PONTCHAILLOU, SAMU CENTRE 15, 2 RUE HENRI LE GUILLOUX, 35000 RENNES",
        "phone": "",
        "sexe": "Homme",
        "lat": 48.1119795,
        "lon": -1.691532
    },
    {
        "name": "LE GOFF Pauline",
        "specialties": "Médecine générale",
        "other_disciplines": "",
        "address": "CHU PONTCHAILLOU, 2 RUE HENRI LE GUILLOUX, 35033 RENNES CEDEX 9",
        "phone": "",
        "sexe": "Femme",
        "lat": 48.11878,
        "lon": -1.693679
    },
    {
        "name": "DJEMAI ZOUGLACHE Tahar",
        "specialties": "Médecine générale",
        "other_disciplines": "",
        "address": "MEDALLIANCE, 18 RUE DU BOURG NOUVEAU, 35000 RENNES",
        "phone": "",
        "sexe": "Homme",
        "lat": 48.1138612,
        "lon": -1.7180783
    },
    {
        "name": "BAILLARD-COSME Beatrice",
        "specialties": "Médecine générale",
        "other_disciplines": "Gérontologie",
        "address": "CHU PONTCHAILLOU, 2 RUE HENRI LE GUILLOUX, 35033 RENNES CEDEX 9",
        "phone": "",
        "sexe": "Femme",
        "lat": 48.11878,
        "lon": -1.693679
    },
    {
        "name": "CHARASSON Marie",
        "specialties": "Médecine vasculaire",
        "other_disciplines": "Médecine vasculaire",
        "address": "CHRU RENNES SITE PONTCHAILLOU, PONTCHAILLOU, 2 RUE HENRI LE GUILLOUX, 35000 RENNES",
        "phone": "",
        "sexe": "Femme",
        "lat": 48.11878,
        "lon": -1.693679
    },
    {
        "name": "LELEU Herve",
        "specialties": "Médecine générale",
        "other_disciplines": "Gérontologie",
        "address": "EHPAD, 59 RUE PAPU, 35000 RENNES",
        "phone": "",
        "sexe": "Homme",
        "lat": 48.111002,
        "lon": -1.698019
    },
    {
        "name": "BRINGER Aurelie",
        "specialties": "Médecine générale",
        "other_disciplines": "Médecine d'urgence",
        "address": "CHU PONTCHAILLOU, 2 RUE HENRI LE GUILLOUX, 35033 RENNES CEDEX 9",
        "phone": "",
        "sexe": "Femme",
        "lat": 48.11878,
        "lon": -1.693679
    },
    {
        "name": "THÉRÉAU Simon",
        "specialties": "Médecine générale",
        "other_disciplines": "",
        "address": "1 SQUARE ARMAND DE LA ROUERIE, 35700 RENNES",
        "phone": "",
        "sexe": "Homme",
        "lat": 48.128723,
        "lon": -1.663222
    },
    {
        "name": "THOMAZEAU Herve",
        "specialties": "Chirurgie générale",
        "other_disciplines": "Chirurgie orthopédique et traumatologie",
        "address": "C.H.R.  PONTCHAILLOU, 2 RUE HENRI LE GUILLOUX, 35033 RENNES CEDEX 9",
        "phone": "0299289782",
        "sexe": "Homme",
        "lat": 48.11878,
        "lon": -1.693679
    },
    {
        "name": "BOUTRUCHE Bettina",
        "specialties": "Médecine générale",
        "other_disciplines": "",
        "address": "CENTRE E. MARQUIS, 5 RUE BATAILLE FLANDRES-DUNKERQUE, CS 44229, 35042 RENNES CEDEX",
        "phone": "0299253030",
        "sexe": "Femme",
        "lat": 48.121436,
        "lon": -1.702082
    },
    {
        "name": "LANGLAIS Lucile",
        "specialties": "Médecine générale",
        "other_disciplines": "",
        "address": "46 BOULEVARD DE CLEUNAY, 35000 RENNES",
        "phone": "0223408181",
        "sexe": "Femme",
        "lat": 48.100725,
        "lon": -1.701506
    },
    {
        "name": "LEDOUX Jean Philippe",
        "specialties": "Pneumologie",
        "other_disciplines": "Cancérologie",
        "address": "78 BOULEVARD DE LA DUCHESSE ANNE, 35700 RENNES",
        "phone": "0299639546",
        "sexe": "Homme",
        "lat": 48.119031,
        "lon": -1.667212
    },
    {
        "name": "IMBERT-OSMOND Olivia",
        "specialties": "Médecine et santé au travail",
        "other_disciplines": "",
        "address": "S.M.U.T., 263 AVENUE DU GENERAL LECLERC, CS 74205, 35042 RENNES CEDEX",
        "phone": "0223236333",
        "sexe": "Femme",
        "lat": 48.11547,
        "lon": -1.636991
    },
    {
        "name": "BEAUGENDRE-DUTRIEZ Marie",
        "specialties": "Médecine et santé au travail",
        "other_disciplines": "",
        "address": "ASSOCIATION SANTE AU TRAVAIL 35, 3 ALLEE DE LA CROIX DES HETRES, 35700 RENNES",
        "phone": "0299121300",
        "sexe": "Femme",
        "lat": 48.121547,
        "lon": -1.631365
    },
    {
        "name": "COFAIS Cecilia",
        "specialties": "Gériatrie",
        "other_disciplines": "",
        "address": "CHRU RENNES SITE PONTCHAILLOU, PONTCHAILLOU, 2 RUE HENRI LE GUILLOUX, 35000 RENNES",
        "phone": "",
        "sexe": "Femme",
        "lat": 48.11878,
        "lon": -1.693679
    },
    {
        "name": "PRAT Marie",
        "specialties": "Médecine générale",
        "other_disciplines": "",
        "address": "RESIDENCE LE CLOS SAINT MARTIN, 17 RUE DES TANNEURS, CS 44309, 35000 RENNES",
        "phone": "",
        "sexe": "Non renseigné",
        "lat": 48.110899,
        "lon": -1.68365
    },
    {
        "name": "JOUANNIN Adeline",
        "specialties": "Médecine générale",
        "other_disciplines": "",
        "address": "3 RUE DE LA HUGUENOTERIE, 35000 RENNES",
        "phone": "",
        "sexe": "Femme",
        "lat": 48.102212,
        "lon": -1.695204
    },
    {
        "name": "MOULIN Anne-Judith",
        "specialties": "Médecine générale",
        "other_disciplines": "",
        "address": "DIGITAL CONSULTATION CENTRE FRANCE, 37 RUE ALEXANDRE DUVAL, 35000 RENNES",
        "phone": "",
        "sexe": "Femme",
        "lat": 48.103493,
        "lon": -1.695275
    },
    {
        "name": "BERENGUER-ROZE Valerie",
        "specialties": "Médecine générale",
        "other_disciplines": "",
        "address": "60 BOULEVARD DE LA GUERINAIS, 35000 RENNES",
        "phone": "0299796190",
        "sexe": "Femme",
        "lat": 48.098476,
        "lon": -1.710477
    },
    {
        "name": "CHAUVEAU Eloïse",
        "specialties": "Médecine générale",
        "other_disciplines": "",
        "address": "CENTRE DE SANTE ST HELIER, 54 RUE SAINT-HELIER, CS 74330, 35043 RENNES CEDEX",
        "phone": "",
        "sexe": "Femme",
        "lat": 48.106452,
        "lon": -1.669549
    },
    {
        "name": "DUGAS Sylvie",
        "specialties": "Médecine générale",
        "other_disciplines": "",
        "address": "ARS DE BRETAGNE, 6 PLACE DES COLOMBES, 35042 RENNES CEDEX",
        "phone": "0299352900",
        "sexe": "Femme",
        "lat": 48.104748,
        "lon": -1.682103
    },
    {
        "name": "SAVARY Celine",
        "specialties": "Médecine générale",
        "other_disciplines": "",
        "address": "VILLE DE RENNES, SERVICE SANTE ENFANCE, 14 RUE SAINT YVES, CS 63126, 35031 RENNES CEDEX",
        "phone": "",
        "sexe": "Femme",
        "lat": 48.110673,
        "lon": -1.682858
    },
    {
        "name": "TERRET Philippe",
        "specialties": "Médecine générale",
        "other_disciplines": "",
        "address": "ALMADIES, GROUPE MEDICAL, 10 AVENUE HENRI FREVILLE, 35200 RENNES",
        "phone": "0299514428",
        "sexe": "Homme",
        "lat": 48.091502,
        "lon": -1.675098
    },
    {
        "name": "RAVELEAU Sylvie",
        "specialties": "Médecine générale",
        "other_disciplines": "",
        "address": "A.D.A.P.T., 31 RUE GUY ROPARTZ, 35700 RENNES",
        "phone": "0223272323",
        "sexe": "Femme",
        "lat": 48.130083,
        "lon": -1.657016
    },
    {
        "name": "JEANNES Eric",
        "specialties": "Médecine générale",
        "other_disciplines": "",
        "address": "118 BOULEVARD VILLEBOIS MAREUIL, 35000 RENNES",
        "phone": "0299506851",
        "sexe": "Homme",
        "lat": 48.101121,
        "lon": -1.649942
    },
    {
        "name": "LE NORMAND Marie",
        "specialties": "Médecine générale",
        "other_disciplines": "",
        "address": "10 RUE DU MORBIHAN, 35700 RENNES",
        "phone": "0299630787",
        "sexe": "Femme",
        "lat": 48.134373,
        "lon": -1.66804
    },
    {
        "name": "BARBOTTIN Elise",
        "specialties": "Médecine générale",
        "other_disciplines": "",
        "address": "CLINIQUE SAINT YVES, 4 RUE ADOLPHE LERAY, CS 54435, 35044 RENNES CEDEX",
        "phone": "",
        "sexe": "Femme",
        "lat": 48.102126,
        "lon": -1.661746
    },
    {
        "name": "CHEVREAU Laurent",
        "specialties": "Médecine générale",
        "other_disciplines": "",
        "address": "8 RUE BERTHE SAVERY, 35000 RENNES",
        "phone": "",
        "sexe": "Homme",
        "lat": 48.109467,
        "lon": -1.646652
    },
    {
        "name": "FLEURETTE Quentin",
        "specialties": "Médecine générale",
        "other_disciplines": "",
        "address": "CHRU RENNES SITE PONTCHAILLOU, PONTCHAILLOU, 2 RUE HENRI LE GUILLOUX, 35000 RENNES",
        "phone": "",
        "sexe": "Homme",
        "lat": 48.11878,
        "lon": -1.693679
    },
    {
        "name": "MENAND Emilie",
        "specialties": "Gériatrie",
        "other_disciplines": "",
        "address": "CHRU RENNES SITE LA TAUVRAIS, RUE DE LA TAUVRAIS, 35000 RENNES",
        "phone": "0299284254",
        "sexe": "Femme",
        "lat": 48.138242,
        "lon": -1.659274
    },
    {
        "name": "PLANTARD Annabel",
        "specialties": "Médecine générale",
        "other_disciplines": "Médecine d'urgenceMédecine de catastropheDIU Soins Palliatifs et Accompagnement",
        "address": "HAD 35, 7 RUE J MAILLARD DE LA GOURNERIE, 35000 RENNES",
        "phone": "",
        "sexe": "Femme",
        "lat": 48.115742,
        "lon": -1.713642
    },
    {
        "name": "DESSAINT Lucile",
        "specialties": "Médecine générale",
        "other_disciplines": "",
        "address": "QARE SANTE, 20 RUE MICHELET, 35000 RENNES",
        "phone": "",
        "sexe": "Femme",
        "lat": 48.110899,
        "lon": -1.68365
    },
    {
        "name": "DESJARDINS Nicolas",
        "specialties": "Médecine générale",
        "other_disciplines": "",
        "address": "18 RUE VICTOR HUGO, 35000 RENNES",
        "phone": "0223202782",
        "sexe": "Homme",
        "lat": 48.112347,
        "lon": -1.675477
    },
    {
        "name": "BENDAHOU Naim",
        "specialties": "Médecine générale",
        "other_disciplines": "",
        "address": "CHU PONTCHAILLOU, 2 RUE HENRI LE GUILLOUX, 35033 RENNES CEDEX 9",
        "phone": "",
        "sexe": "Homme",
        "lat": 48.11878,
        "lon": -1.693679
    },
    {
        "name": "OKSENHENDLER Aurelie",
        "specialties": "Médecine du travail",
        "other_disciplines": "",
        "address": "ASSOCIATION SANTE AU TRAVAIL 35, 3 ALLEE DE LA CROIX DES HETRES, 35700 RENNES",
        "phone": "",
        "sexe": "Femme",
        "lat": 48.121547,
        "lon": -1.631365
    },
    {
        "name": "QUEMENEUR Morgane",
        "specialties": "Médecine générale",
        "other_disciplines": "",
        "address": "POLYCLINIQUE ST LAURENT, UNITE ADDICTOLOGIE, 320 AVENUE GENERAL GEORGE PATTON, cs10610, 35706 RENNES CEDEX 7",
        "phone": "0299256500",
        "sexe": "Femme",
        "lat": 48.137656,
        "lon": -1.658287
    },
    {
        "name": "SOULIER Henri",
        "specialties": "Médecine générale",
        "other_disciplines": "Médecine et biologie du sportDIU Médecine Manuelle et d'Ostéopathie",
        "address": "6E ETAGE, CENTRE COMMERCIAL ALMA, 5 RUE DU BOSPHORE, 35200 RENNES",
        "phone": "0299417177",
        "sexe": "Homme",
        "lat": 48.082558,
        "lon": -1.679494
    },
    {
        "name": "D'AGUANNO Marie-France",
        "specialties": "Médecine générale",
        "other_disciplines": "Médecine et biologie du sport",
        "address": "LA POSTE - 5EME ETAGE, SERVICE DE SANTE AU TRAVAIL, 27 BOULEVARD DU COLOMBIER, BP 63287, 35032 RENNES CEDEX",
        "phone": "",
        "sexe": "Femme",
        "lat": 48.103332,
        "lon": -1.677699
    },
    {
        "name": "BECHAC Marie",
        "specialties": "Médecine générale",
        "other_disciplines": "Gérontologie",
        "address": "CENTRE D'EXAMENS DE SANTE, LE SULLY, 3 PLACE DU COLOMBIER, 35000 RENNES",
        "phone": "",
        "sexe": "Femme",
        "lat": 48.104814,
        "lon": -1.6803
    },
    {
        "name": "BOUVET Renaud",
        "specialties": "Médecine légale et expertises médicales",
        "other_disciplines": "Médecine légale et expertises médicales",
        "address": "CHU PONTCHAILLOU, PAVILLON TARDIEU, 2 RUE HENRI LE GUILLOUX, 35033 RENNES CEDEX 9",
        "phone": "0299282428",
        "sexe": "Homme",
        "lat": 48.11878,
        "lon": -1.693679
    },
    {
        "name": "TOULEMONT Pierre-Jean",
        "specialties": "Ophtalmologie",
        "other_disciplines": "",
        "address": "7 RUE DE LA VISITATION, 35000 RENNES",
        "phone": "",
        "sexe": "Homme",
        "lat": 48.114483,
        "lon": -1.678694
    },
    {
        "name": "HERVE Celine",
        "specialties": "Médecine générale",
        "other_disciplines": "Gérontologie",
        "address": "RESIDENCE SAINT HELIER, 15 AVENUE DES FRANCAIS LIBRES, CS 44033, 35000 RENNES",
        "phone": "",
        "sexe": "Femme",
        "lat": 48.105373,
        "lon": -1.669357
    },
    {
        "name": "RENARD Nathalie",
        "specialties": "Médecine du travail",
        "other_disciplines": "",
        "address": "SMEBTPC, 1 ALLEE DU BATIMENT, B.P. 41 609, 35016 RENNES CEDEX",
        "phone": "",
        "sexe": "Femme",
        "lat": 48.131201,
        "lon": -1.681424
    },
    {
        "name": "MANEZ ASENSI Clara",
        "specialties": "Médecine générale",
        "other_disciplines": "",
        "address": "ACADEMIE DE RENNES, RECTORAT, 96 RUE D ANTRAIN, BP 10503, 35700 RENNES",
        "phone": "",
        "sexe": "Femme",
        "lat": 48.119567,
        "lon": -1.674129
    },
    {
        "name": "BOT Emilie",
        "specialties": "Médecine générale",
        "other_disciplines": "",
        "address": "SAMU 35, CHRU PONTCHAILLOU, 2 RUE HENRI LE GUILLOUX, 35033 RENNES CEDEX 9",
        "phone": "0299591616",
        "sexe": "Femme",
        "lat": 48.11878,
        "lon": -1.693679
    },
    {
        "name": "LECHEVALLIER Julie",
        "specialties": "Médecine générale",
        "other_disciplines": "",
        "address": "CHU PONTCHAILLOU, 2 RUE HENRI LE GUILLOUX, 35033 RENNES CEDEX 9",
        "phone": "",
        "sexe": "Homme",
        "lat": 48.11878,
        "lon": -1.693679
    },
    {
        "name": "GENIN Nicolas",
        "specialties": "Médecine générale",
        "other_disciplines": "Evaluation et tratement de la douleurMédecine de la douleur et médecine palliative",
        "address": "CHU LA TAUVRAIS, RUE DE LA TAUVRAIS, 35033 RENNES CEDEX 9",
        "phone": "0299873562",
        "sexe": "Homme",
        "lat": 48.138242,
        "lon": -1.659274
    },
    {
        "name": "YVETOT Quentin",
        "specialties": "Médecine générale",
        "other_disciplines": "Médecine d'urgence",
        "address": "CHU PONTCHAILLOU, 2 RUE HENRI LE GUILLOUX, 35033 RENNES CEDEX 9",
        "phone": "",
        "sexe": "Homme",
        "lat": 48.11878,
        "lon": -1.693679
    },
    {
        "name": "NIFENECKER Romain",
        "specialties": "Médecine générale",
        "other_disciplines": "",
        "address": "6 AVENUE SIR WINSTON CHURCHILL, 35000 RENNES",
        "phone": "0299593294",
        "sexe": "Homme",
        "lat": 48.11789,
        "lon": -1.707701
    },
    {
        "name": "GENTIL Marie-Line",
        "specialties": "Médecine générale",
        "other_disciplines": "",
        "address": "CENTRE DEPARTEMENTAL DE PMI, 1 AVENUE DE LA PREFECTURE, CS 24218, 35000 RENNES",
        "phone": "",
        "sexe": "Femme",
        "lat": 48.127132,
        "lon": -1.693496
    },
    {
        "name": "GAUTIER Lydie",
        "specialties": "Médecine générale",
        "other_disciplines": "",
        "address": "5 ALLEE DU GACET, 35200 RENNES",
        "phone": "0299501902",
        "sexe": "Femme",
        "lat": 48.08563,
        "lon": -1.664894
    },
    {
        "name": "BEVAN Cyrille",
        "specialties": "Médecine générale",
        "other_disciplines": "DIU Médecine Manuelle et d'Ostéopathie",
        "address": "83 AVENUE ARISTIDE BRIAND, 35000 RENNES",
        "phone": "0223281320",
        "sexe": "Homme",
        "lat": 48.1104,
        "lon": -1.662006
    },
    {
        "name": "WEIL Alex",
        "specialties": "Médecine générale",
        "other_disciplines": "",
        "address": "RESIDENCE ST HELIER, 15 AVENUE DES FRANCAIS LIBRES, 35000 RENNES",
        "phone": "",
        "sexe": "Femme",
        "lat": 48.105373,
        "lon": -1.669357
    },
    {
        "name": "GUILLIEN Margaux",
        "specialties": "Médecine générale",
        "other_disciplines": "",
        "address": "PLANNING FAMILIAL D'ILLE ET VILAINE, 35 BD DE LA TOUR D AUVERGNE, 35000 RENNES",
        "phone": "",
        "sexe": "Femme",
        "lat": 48.104944,
        "lon": -1.684084
    },
    {
        "name": "KLEIN Marina",
        "specialties": "Médecine générale",
        "other_disciplines": "",
        "address": "BIOTRIAL, 7 RUE JEAN LOUIS BERTRAND, 35000 RENNES",
        "phone": "",
        "sexe": "Femme",
        "lat": 48.124301,
        "lon": -1.695906
    },
    {
        "name": "BOURKELS Georges",
        "specialties": "Radio-diagnostic",
        "other_disciplines": "",
        "address": "MEDALLIANCE, 18 RUE DU BOURG NOUVEAU, 35000 RENNES",
        "phone": "",
        "sexe": "Homme",
        "lat": 48.113906,
        "lon": -1.718125
    },
    {
        "name": "GAUCHER-DENOUAL Anne",
        "specialties": "Médecine générale",
        "other_disciplines": "",
        "address": "53 CCAL PRESIDENT KENNEDY, 35000 RENNES",
        "phone": "0299339077",
        "sexe": "Femme",
        "lat": 48.121194,
        "lon": -1.712406
    },
    {
        "name": "CABOTTE-CARILLON Murielle",
        "specialties": "Médecine générale",
        "other_disciplines": "",
        "address": "13 AVENUE GERMAINE DULAC, 35000 RENNES",
        "phone": "0299699532",
        "sexe": "Femme",
        "lat": 48.133942,
        "lon": -1.696808
    },
    {
        "name": "DELBES Sandy",
        "specialties": "Médecine générale",
        "other_disciplines": "",
        "address": "19 QUAI CHATEAUBRIAND, 35000 RENNES",
        "phone": "0299782443",
        "sexe": "Femme",
        "lat": 48.110271,
        "lon": -1.675923
    },
    {
        "name": "PEDUZZI-RAT Jessica",
        "specialties": "Médecine générale",
        "other_disciplines": "",
        "address": "46 BOULEVARD DE CLEUNAY, 35000 RENNES",
        "phone": "0223408181",
        "sexe": "Femme",
        "lat": 48.100725,
        "lon": -1.701506
    },
    {
        "name": "LAFFORGUE Yannick",
        "specialties": "Médecine générale",
        "other_disciplines": "",
        "address": "9 SQUARE DU GENERAL KOENIG, 35000 RENNES",
        "phone": "0299791513",
        "sexe": "Homme",
        "lat": 48.105452,
        "lon": -1.682797
    },
    {
        "name": "SZYMANSKI Mickael",
        "specialties": "Médecine générale",
        "other_disciplines": "HoméopathieDIU Médecine subaquatique et Hyperbare",
        "address": "20 AVENUE HENRI FREVILLE, 35200 RENNES",
        "phone": "0299417370",
        "sexe": "Homme",
        "lat": 48.089627,
        "lon": -1.675246
    },
    {
        "name": "REGNAULT Alice",
        "specialties": "Médecine générale",
        "other_disciplines": "",
        "address": "EHPAD, 38 BD OSCAR LEROUX, 35000 RENNES",
        "phone": "",
        "sexe": "Femme",
        "lat": 48.091146,
        "lon": -1.664626
    },
    {
        "name": "VAN DER JEUGT Leen",
        "specialties": "Médecine générale",
        "other_disciplines": "",
        "address": "CLINIQUE SAINT YVES, 4 RUE ADOLPHE LERAY, CS 54435, 35000 RENNES",
        "phone": "",
        "sexe": "Femme",
        "lat": 48.102126,
        "lon": -1.661746
    },
    {
        "name": "DONVAL Ulysse",
        "specialties": "Médecine générale",
        "other_disciplines": "",
        "address": "CHU PONTCHAILLOU, 2 RUE HENRI LE GUILLOUX, 35033 RENNES CEDEX 9",
        "phone": "",
        "sexe": "Homme",
        "lat": 48.11878,
        "lon": -1.693679
    },
    {
        "name": "BERNARD Dany",
        "specialties": "Médecine générale",
        "other_disciplines": "Médecine et biologie du sport",
        "address": "4 AVENUE DU CANADA, 35200 RENNES",
        "phone": "0299515656",
        "sexe": "Homme",
        "lat": 48.088884,
        "lon": -1.682646
    },
    {
        "name": "NGUYEN Rémi-Toan",
        "specialties": "Médecine générale",
        "other_disciplines": "",
        "address": "CDS KERSANTE COURROUZE, 18 AVENUE JULES MANIEZ, 35000 RENNES",
        "phone": "",
        "sexe": "Homme",
        "lat": 48.098657,
        "lon": -1.697845
    },
    {
        "name": "JAN Jacqueline",
        "specialties": "Médecine générale",
        "other_disciplines": "Médecine appliquée aux sportsDIU Réparation juridique du dommage corporel",
        "address": "CLINIQUE MUTUALISTE DE LA SAGESSE, 4 PLACE ST GUENOLE, 1319, 35043 RENNES CEDEX",
        "phone": "",
        "sexe": "Femme",
        "lat": 48.100804,
        "lon": -1.712399
    },
    {
        "name": "BERNET-ROLLANDE Mireille",
        "specialties": "Médecine générale",
        "other_disciplines": "",
        "address": "141 AVENUE ARISTIDE BRIAND, 35000 RENNES",
        "phone": "",
        "sexe": "Femme",
        "lat": 48.110399,
        "lon": -1.656008
    },
    {
        "name": "FABLET Anna",
        "specialties": "Médecine générale",
        "other_disciplines": "",
        "address": "CLINIQUE MUTUALISTE DE LA SAGESSE, 4 PLACE ST GUENOLE, 1319, 35043 RENNES CEDEX",
        "phone": "",
        "sexe": "Femme",
        "lat": 48.100804,
        "lon": -1.712399
    },
    {
        "name": "LE MINOUS Florence",
        "specialties": "Médecine générale",
        "other_disciplines": "",
        "address": "AUDITIME CONSEILS, 4 RUE PIERRE JOSEPH COLIN, 35000 RENNES",
        "phone": "0299367398",
        "sexe": "Femme",
        "lat": 48.115532,
        "lon": -1.716183
    },
    {
        "name": "MAMBRINI Philippe",
        "specialties": "Médecine générale",
        "other_disciplines": "",
        "address": "ASSOCIATION SANTE AU TRAVAIL 35, 3 ALLEE DE LA CROIX DES HETRES, 35700 RENNES",
        "phone": "0299121300",
        "sexe": "Homme",
        "lat": 48.121547,
        "lon": -1.631365
    },
    {
        "name": "BONHEURE Adrien",
        "specialties": "Médecine générale",
        "other_disciplines": "",
        "address": "POLYCLINQUE SAINT LAURENT, 320 AVENUE GENERAL GEORGES PATTON, cs10610, 35006 RENNES CEDEX",
        "phone": "",
        "sexe": "Homme",
        "lat": 48.137656,
        "lon": -1.658287
    },
    {
        "name": "EDERN Maëva",
        "specialties": "Médecine générale",
        "other_disciplines": "",
        "address": "CDS INWE'CARE, 3 BD DE LA TOUR D AUVERGNE, 35000 RENNES",
        "phone": "",
        "sexe": "Femme",
        "lat": 48.10795,
        "lon": -1.68431
    },
    {
        "name": "LOUIS Lisa",
        "specialties": "Médecine générale",
        "other_disciplines": "",
        "address": "25 SQUARE DE LA RANCE, 35000 RENNES",
        "phone": "0222911230",
        "sexe": "Femme",
        "lat": 48.118355,
        "lon": -1.681808
    },
    {
        "name": "PAILLARD Francois",
        "specialties": "Cardiologie et maladies vasculaires",
        "other_disciplines": "",
        "address": "C.H.U. PONTCHAILLOU, 2 RUE HENRI LE GUILLOUX, 35033 RENNES CEDEX 9",
        "phone": "0299282540",
        "sexe": "Homme",
        "lat": 48.11878,
        "lon": -1.693679
    },
    {
        "name": "DUCHATEAUX Bastien",
        "specialties": "Médecine générale",
        "other_disciplines": "",
        "address": "CHRU RENNES SITE PONTCHAILLOU, PONTCHAILLOU, 2 RUE HENRI LE GUILLOUX, 35000 RENNES",
        "phone": "",
        "sexe": "Homme",
        "lat": 48.11878,
        "lon": -1.693679
    },
    {
        "name": "MARQUET Jean-Francois",
        "specialties": "Psychiatrie option enfant adolescent",
        "other_disciplines": "",
        "address": "25 BOULEVARD DE LA LIBERTE, 35000 RENNES",
        "phone": "0299782311",
        "sexe": "Homme",
        "lat": 48.107293,
        "lon": -1.679613
    },
    {
        "name": "GUICHETEAU Cloe",
        "specialties": "Médecine générale",
        "other_disciplines": "",
        "address": "15 RUE EMILE SOUVESTRE, 35000 RENNES",
        "phone": "0299305538",
        "sexe": "Femme",
        "lat": 48.105961,
        "lon": -1.678219
    },
    {
        "name": "GERBAUD Julien",
        "specialties": "Médecine générale",
        "other_disciplines": "",
        "address": "42 RUE MARC SANGNIER, 35200 RENNES",
        "phone": "0299510728",
        "sexe": "Homme",
        "lat": 48.09309,
        "lon": -1.655782
    },
    {
        "name": "MORIN-CHOUARBI Virginie",
        "specialties": "Médecine générale",
        "other_disciplines": "Gérontologie",
        "address": "U.S.L.D. LA TAUVRAIS, RUE DE LA TAUVRAIS, 35033 RENNES CEDEX 9",
        "phone": "0299274403",
        "sexe": "Femme",
        "lat": 48.138242,
        "lon": -1.659274
    },
    {
        "name": "COMBEUIL Irène",
        "specialties": "Médecine générale",
        "other_disciplines": "",
        "address": "CLINIQUE DE L'ESPERANCE, 6 RUE DE LA BORDERIE, 35000 RENNES",
        "phone": "",
        "sexe": "Femme",
        "lat": 48.11584,
        "lon": -1.675822
    },
    {
        "name": "GOIX Laurent",
        "specialties": "Médecine d'urgence",
        "other_disciplines": "Médecine d'urgenceMédecine de catastrophe",
        "address": "CHU PONTCHAILLOU, 2 RUE HENRI LE GUILLOUX, 35033 RENNES CEDEX 9",
        "phone": "",
        "sexe": "Homme",
        "lat": 48.11878,
        "lon": -1.693679
    },
    {
        "name": "ROBIN Matthieu",
        "specialties": "Médecine générale",
        "other_disciplines": "",
        "address": "CHRU RENNES SITE PONTCHAILLOU, PONTCHAILLOU, 2 RUE HENRI LE GUILLOUX, 35000 RENNES",
        "phone": "",
        "sexe": "Homme",
        "lat": 48.11878,
        "lon": -1.693679
    },
    {
        "name": "CHERFAOUI Tarik",
        "specialties": "Médecine générale",
        "other_disciplines": "Médecine de catastropheMédecine d'urgenceMédecine d'urgence",
        "address": "CHU PONTCHAILLOU, RUE HENRI LE GUILLOUX, 35033 RENNES CEDEX 9",
        "phone": "0299284321",
        "sexe": "Homme",
        "lat": 48.116904,
        "lon": -1.696206
    },
    {
        "name": "PINOCHE Francois",
        "specialties": "Gériatrie",
        "other_disciplines": "Gérontologie",
        "address": "POLYCLINIQUE ST LAURENT, 320 AVENUE GENERAL GEORGE PATTON, cs10610, 35706 RENNES CEDEX 7",
        "phone": "",
        "sexe": "Homme",
        "lat": 48.137656,
        "lon": -1.658287
    },
    {
        "name": "ALIX Audrey",
        "specialties": "Médecine générale",
        "other_disciplines": "",
        "address": "2 RUE MICHEL GERARD, 35200 RENNES",
        "phone": "0299508686",
        "sexe": "Femme",
        "lat": 48.089478,
        "lon": -1.644489
    },
    {
        "name": "DEMY-LE HÉNANFF Valentine",
        "specialties": "Médecine générale",
        "other_disciplines": "",
        "address": "PLANNING FAMILIAL D'ILLE ET VILAINE, 11 BD MAL DE LATTRE DE TASSIGNY, 35000 RENNES",
        "phone": "",
        "sexe": "Femme",
        "lat": 48.112841,
        "lon": -1.687809
    },
    {
        "name": "LAVALOU Fanny",
        "specialties": "Médecine générale",
        "other_disciplines": "",
        "address": "CONSEIL GENERAL 35, 13 AVENUE DE CUCILLE, CS 24218, 35000 RENNES",
        "phone": "",
        "sexe": "Femme",
        "lat": 48.110899,
        "lon": -1.68365
    },
    {
        "name": "MAUTIN Jocelyne",
        "specialties": "Médecine du travail",
        "other_disciplines": "",
        "address": "BPIFRANCE, 6 PLACE DE BRETAGNE, cs 34406, 35044 RENNES CEDEX",
        "phone": "",
        "sexe": "Femme",
        "lat": 48.10902,
        "lon": -1.684748
    },
    {
        "name": "ROLAND Damien",
        "specialties": "Médecine générale",
        "other_disciplines": "",
        "address": "25 SQUARE DE LA RANCE, 35000 RENNES",
        "phone": "",
        "sexe": "Homme",
        "lat": 48.118355,
        "lon": -1.681808
    },
    {
        "name": "BERNARD Eymeric",
        "specialties": "Médecine vasculaire",
        "other_disciplines": "Angéiologie",
        "address": "POLYCLINIQUE SAINT-LAURENT, 320 AVENUE GENERAL GEORGE PATTON, 35700 RENNES",
        "phone": "",
        "sexe": "Homme",
        "lat": 48.137656,
        "lon": -1.658287
    },
    {
        "name": "FROUARD Pierre",
        "specialties": "Médecine générale",
        "other_disciplines": "",
        "address": "1 RUE D ARMAGNAC, 35000 RENNES",
        "phone": "0299597263",
        "sexe": "Homme",
        "lat": 48.119731,
        "lon": -1.714631
    },
    {
        "name": "GERARD Henri",
        "specialties": "Médecine générale",
        "other_disciplines": "",
        "address": "20 AVENUE HENRI FREVILLE, 35200 RENNES",
        "phone": "0299417370",
        "sexe": "Homme",
        "lat": 48.089627,
        "lon": -1.675246
    },
    {
        "name": "MALANDAIN Pauline",
        "specialties": "Médecine générale",
        "other_disciplines": "",
        "address": "POLE SANTE PUBLIQUE HANDICAP, SERVICE SANTE ENFANCE, 14 RUE SAINT YVES, BP 3126, 35031 RENNES CEDEX",
        "phone": "",
        "sexe": "Femme",
        "lat": 48.110899,
        "lon": -1.68365
    },
    {
        "name": "LESQUIBE-PERRUS Catherine",
        "specialties": "Médecine générale",
        "other_disciplines": "Cardiologie et médecine des affections vasculaires",
        "address": "C.H.  GUILLAUME REGNIER RENNES, 108 AVENUE DU GENERAL LECLERC, BP 60321, 35000 RENNES",
        "phone": "",
        "sexe": "Femme",
        "lat": 48.110899,
        "lon": -1.68365
    },
    {
        "name": "NOEL Nathalie",
        "specialties": "Médecine générale",
        "other_disciplines": "",
        "address": "ELSM, COURS DES ALLIES, 35006 RENNES CEDEX",
        "phone": "",
        "sexe": "Femme",
        "lat": 48.10528,
        "lon": -1.676035
    },
    {
        "name": "GODIN Olivier",
        "specialties": "Médecine générale",
        "other_disciplines": "",
        "address": "91 RUE DE LORIENT, 35000 RENNES",
        "phone": "0299143020",
        "sexe": "Homme",
        "lat": 48.109236,
        "lon": -1.707615
    },
    {
        "name": "CAUBEL Cecile",
        "specialties": "Médecine générale",
        "other_disciplines": "Médecine et biologie du sport",
        "address": "DEPARTEMENT D ILLE ET VILAINE, HOTEL DU DEPARTEMENT, 1 AVENUE DE LA PREFECTURE, CS 24218 RENNES, 35042 RENNES CEDEX",
        "phone": "",
        "sexe": "Femme",
        "lat": 48.127132,
        "lon": -1.693496
    },
    {
        "name": "ANDRIEUX-LAMBOTTE Francoise",
        "specialties": "Médecine générale",
        "other_disciplines": "",
        "address": "DIRECTION SANTE PUBLIQUE HANDICAP, SERVICE SANTE ENFANCE, 14 RUE SAINT YVES, CS 63126, 35031 RENNES CEDEX",
        "phone": "",
        "sexe": "Femme",
        "lat": 48.110899,
        "lon": -1.68365
    },
    {
        "name": "PLESSE Armand",
        "specialties": "Médecine générale",
        "other_disciplines": "Médecine appliquée aux sports",
        "address": "PREFECTURE D'ILLE-ET-VILAINE, AVENUE DE LA PREFECTURE, 35700 RENNES",
        "phone": "",
        "sexe": "Homme",
        "lat": 48.127238,
        "lon": -1.693528
    },
    {
        "name": "KOZLOVA Irina",
        "specialties": "Médecine générale",
        "other_disciplines": "",
        "address": "CHGR, 108 AVENUE DU GENERAL LECLERC, bp 60321, 35703 RENNES CEDEX 7",
        "phone": "",
        "sexe": "Femme",
        "lat": 48.114603,
        "lon": -1.651699
    },
    {
        "name": "BARAZER Jeanne",
        "specialties": "Médecine générale",
        "other_disciplines": "",
        "address": "C.H.  GUILLAUME REGNIER, 108 AVENUE DU GENERAL LECLERC, B.P. 60321, 35703 RENNES CEDEX 7",
        "phone": "",
        "sexe": "Femme",
        "lat": 48.114603,
        "lon": -1.651699
    },
    {
        "name": "CONGAR Myriam",
        "specialties": "Médecine générale",
        "other_disciplines": "",
        "address": "19 QUAI CHATEAUBRIAND, 35000 RENNES",
        "phone": "",
        "sexe": "Femme",
        "lat": 48.110271,
        "lon": -1.675923
    },
    {
        "name": "MENARD Sebastien",
        "specialties": "Médecine générale",
        "other_disciplines": "Médecine d'urgenceMédecine et biologie du sportDIU Médecine Manuelle et d'Ostéopathie",
        "address": "POLYCLINIQUE ST LAURENT, 320 AVENUE GENERAL GEORGE PATTON, cs10610, 35706 RENNES CEDEX 7",
        "phone": "",
        "sexe": "Homme",
        "lat": 48.137656,
        "lon": -1.658287
    },
    {
        "name": "GONZALO Ana",
        "specialties": "Médecine générale",
        "other_disciplines": "",
        "address": "CENTRE DE SANTE DU BLOSNE, 1 PLACE DU BANAT, 35200 RENNES",
        "phone": "",
        "sexe": "Femme",
        "lat": 48.087103,
        "lon": -1.655686
    },
    {
        "name": "PADRONI Christophe",
        "specialties": "Médecine générale",
        "other_disciplines": "",
        "address": "DEPARTEMENT 35, 1 AVENUE DE LA PREFECTURE, CS 24218, 35042 RENNES CEDEX",
        "phone": "",
        "sexe": "Homme",
        "lat": 48.127132,
        "lon": -1.693496
    },
    {
        "name": "CHARBONNEAU-SARNEL Sophie",
        "specialties": "Médecine générale",
        "other_disciplines": "",
        "address": "CH GUILLAUME REGNIER, 108 AVENUE DU GENERAL LECLERC, BP 60321, 35703 RENNES CEDEX 7",
        "phone": "",
        "sexe": "Femme",
        "lat": 48.114603,
        "lon": -1.651699
    },
    {
        "name": "PRUD'HOMM Joaquim",
        "specialties": "Médecine générale",
        "other_disciplines": "",
        "address": "CHU PONTCHAILLOU, SERVICE GERIATRIE, 2 RUE HENRI LE GUILLOUX, 35033 RENNES CEDEX 9",
        "phone": "",
        "sexe": "Homme",
        "lat": 48.11878,
        "lon": -1.693679
    },
    {
        "name": "CADO Thierry",
        "specialties": "Médecine générale",
        "other_disciplines": "",
        "address": "EFS BRETAGNE, RUE PIERRE JEAN GINESTE, BP 91614, 35016 RENNES CEDEX",
        "phone": "0299544222",
        "sexe": "Homme",
        "lat": 48.120347,
        "lon": -1.699076
    },
    {
        "name": "SUEUR Bertrand",
        "specialties": "Médecine générale",
        "other_disciplines": "",
        "address": "34 RUE LE GUEN DE KERANGAL, 35200 RENNES",
        "phone": "0299321727",
        "sexe": "Homme",
        "lat": 48.093666,
        "lon": -1.685993
    },
    {
        "name": "LAM Nary",
        "specialties": "Médecine générale",
        "other_disciplines": "",
        "address": "18 RUE DU BOURG NOUVEAU, 35000 RENNES",
        "phone": "",
        "sexe": "Homme",
        "lat": 48.113906,
        "lon": -1.718125
    },
    {
        "name": "DAMBRICOURT Jean",
        "specialties": "Médecine générale",
        "other_disciplines": "",
        "address": "CHRU PONTCHAILLOU, 2 RUE HENRI LE GUILLOUX, 35033 RENNES CEDEX 9",
        "phone": "0299284321",
        "sexe": "Non renseigné",
        "lat": 48.11878,
        "lon": -1.693679
    },
    {
        "name": "BRIODEAU Karen",
        "specialties": "Médecine générale",
        "other_disciplines": "",
        "address": "C.H.G.R., 108 AVENUE DU GENERAL LECLERC, BP 60321, 35703 RENNES CEDEX 7",
        "phone": "",
        "sexe": "Femme",
        "lat": 48.114603,
        "lon": -1.651699
    },
    {
        "name": "BONFILS Johann",
        "specialties": "Médecine générale",
        "other_disciplines": "Médecine légale et expertises médicalesDIU Réparation juridique du dommage corporel",
        "address": "LE CORAIL, BATIMENT A, 4 ALLEE DU BATIMENT, 35000 RENNES",
        "phone": "",
        "sexe": "Homme",
        "lat": 48.130966,
        "lon": -1.681998
    },
    {
        "name": "DELAUNAY Philippe",
        "specialties": "Médecine générale",
        "other_disciplines": "Médecine et biologie du sportDIU Médecine Manuelle et d'Ostéopathie",
        "address": "2 RUE MICHEL GERARD, 35200 RENNES",
        "phone": "0299508686",
        "sexe": "Homme",
        "lat": 48.089478,
        "lon": -1.644489
    },
    {
        "name": "CADIC-GAUTIER Emmanuelle",
        "specialties": "Médecine du travail",
        "other_disciplines": "",
        "address": "ASSOCIATION SANTE AU TRAVAIL 35, 3 ALLEE DE LA CROIX DES HETRES, 35700 RENNES",
        "phone": "0299752617",
        "sexe": "Femme",
        "lat": 48.121547,
        "lon": -1.631365
    },
    {
        "name": "BRANDICOURT Laure",
        "specialties": "Médecine générale",
        "other_disciplines": "",
        "address": "ACADEMIE DE RENNES, RECTORAT, 96 RUE D ANTRAIN, BP 10503, 35700 RENNES",
        "phone": "",
        "sexe": "Femme",
        "lat": 48.119567,
        "lon": -1.674129
    },
    {
        "name": "MUSSET Coralie",
        "specialties": "Médecine générale",
        "other_disciplines": "",
        "address": "155 AVENUE DU GENERAL LECLERC, 35000 RENNES",
        "phone": "",
        "sexe": "Femme",
        "lat": 48.110899,
        "lon": -1.68365
    },
    {
        "name": "BUAN Claudine",
        "specialties": "Dermato-vénéréologie",
        "other_disciplines": "",
        "address": "2 RUE D ORLEANS, 35000 RENNES",
        "phone": "",
        "sexe": "Femme",
        "lat": 48.110412,
        "lon": -1.679114
    },
    {
        "name": "SAVOURE Karine",
        "specialties": "Médecine générale",
        "other_disciplines": "Médecine d'urgenceDIU Réparation juridique du dommage corporel",
        "address": "CHRU PONTCHAILLOU, ACCUEIL URGENCES, 2 RUE HENRI LE GUILLOUX, 35033 RENNES CEDEX 9",
        "phone": "0299284321",
        "sexe": "Femme",
        "lat": 48.11878,
        "lon": -1.693679
    },
    {
        "name": "QUELLEUC Daniel",
        "specialties": "Médecine générale",
        "other_disciplines": "Médecine appliquée aux sports",
        "address": "25 BOULEVARD DE LA LIBERTE, 35000 RENNES",
        "phone": "0299781423",
        "sexe": "Homme",
        "lat": 48.107293,
        "lon": -1.679613
    },
    {
        "name": "LAGADEC-LE DU Christine",
        "specialties": "Gériatrie",
        "other_disciplines": "Gérontologie",
        "address": "CENTRE DE PREVENTION AGIRC-ARRCO, BIEN VIELLIR, 5 RUE LOUIS KERAUTRET BOTMEL, 35000 RENNES",
        "phone": "0299922525",
        "sexe": "Femme",
        "lat": 48.092651,
        "lon": -1.633737
    },
    {
        "name": "FAUCHOUX Nicolas",
        "specialties": "Médecine générale",
        "other_disciplines": "",
        "address": "BIOTRIAL, RUE JEAN LOUIS BERTRAND, 35000 RENNES",
        "phone": "0299599191",
        "sexe": "Homme",
        "lat": 48.12442,
        "lon": -1.696046
    },
    {
        "name": "ADRIEN Stephane",
        "specialties": "Médecine vasculaire",
        "other_disciplines": "Angéiologie",
        "address": "5 RUE TRONJOLLY, 35000 RENNES",
        "phone": "0299309886",
        "sexe": "Homme",
        "lat": 48.10704,
        "lon": -1.680329
    },
    {
        "name": "LEFLOCH-DRISSI Francoise",
        "specialties": "Médecine du travail",
        "other_disciplines": "",
        "address": "ASSOCIATION SANTE AU TRAVAIL 35, 3 ALLEE DE LA CROIX DES HETRES, 35700 RENNES",
        "phone": "",
        "sexe": "Femme",
        "lat": 48.121547,
        "lon": -1.631365
    },
    {
        "name": "MOUSSAULT-LEFEUVRE Christine",
        "specialties": "Médecine générale",
        "other_disciplines": "",
        "address": "CLINIQUE ST YVES, 4 RUE ADOLPHE LERAY, CS 54435, 35044 RENNES CEDEX",
        "phone": "0299262600",
        "sexe": "Femme",
        "lat": 48.102126,
        "lon": -1.661746
    },
    {
        "name": "LAPADU-HARGUES Elinore",
        "specialties": "Médecine générale",
        "other_disciplines": "",
        "address": "CENTRE DE SANTE DU BLOSNE, 1 PLACE DU BANAT, 35200 RENNES",
        "phone": "",
        "sexe": "Femme",
        "lat": 48.087103,
        "lon": -1.655686
    },
    {
        "name": "BREBAN Anne",
        "specialties": "Médecine générale",
        "other_disciplines": "",
        "address": "ACADEMIE DE RENNES, RECTORAT, 96 RUE D ANTRAIN, BP 10503, 35700 RENNES",
        "phone": "",
        "sexe": "Femme",
        "lat": 48.119567,
        "lon": -1.674129
    },
    {
        "name": "BERTHELOT Charles",
        "specialties": "Médecine générale",
        "other_disciplines": "",
        "address": "46 BOULEVARD DE CLEUNAY, 35000 RENNES",
        "phone": "0223408181",
        "sexe": "Homme",
        "lat": 48.100725,
        "lon": -1.701506
    },
    {
        "name": "LE JEANNE-PERON Dominique",
        "specialties": "Médecine du travail",
        "other_disciplines": "",
        "address": "ASSOCIATION SANTE AU TRAVAIL 35, 3 ALLEE DE LA CROIX DES HETRES, 35700 RENNES",
        "phone": "0223350548",
        "sexe": "Femme",
        "lat": 48.121547,
        "lon": -1.631365
    },
    {
        "name": "HAOUILI Beatrice",
        "specialties": "Médecine générale",
        "other_disciplines": "",
        "address": "RESIDENCE LUCIEN SCHROEDER, 28 RUE DE REDON, 35000 RENNES",
        "phone": "",
        "sexe": "Femme",
        "lat": 48.105576,
        "lon": -1.689677
    },
    {
        "name": "MAUNY Marcel",
        "specialties": "Médecine générale",
        "other_disciplines": "",
        "address": "88 RUE ALPHONSE GUERIN, 35000 RENNES",
        "phone": "0299361409",
        "sexe": "Homme",
        "lat": 48.109585,
        "lon": -1.656414
    },
    {
        "name": "HORRUT Julie",
        "specialties": "Médecine générale",
        "other_disciplines": "",
        "address": "C.H.R.S. ASFAD RENNES, 146 RUE DE LORIENT, CS 64418, 35044 RENNES CEDEX",
        "phone": "",
        "sexe": "Femme",
        "lat": 48.108357,
        "lon": -1.708269
    },
    {
        "name": "BOCHE Arnaud",
        "specialties": "Médecine générale",
        "other_disciplines": "",
        "address": "20 AVENUE HENRI FREVILLE, 35200 RENNES",
        "phone": "0299417370",
        "sexe": "Homme",
        "lat": 48.089627,
        "lon": -1.675246
    },
    {
        "name": "MARTINEZ Florianne",
        "specialties": "Médecine générale",
        "other_disciplines": "",
        "address": "CDS DES UNIVERSITES RENNES, CAMPUS BEAULIEU BATIMENT 21, 263 AVENUE GENERAL LECLERC, 35042 RENNES CEDEX",
        "phone": "",
        "sexe": "Femme",
        "lat": 48.11547,
        "lon": -1.636991
    },
    {
        "name": "LELONG Bernard",
        "specialties": "Cardiologie et maladies vasculaires",
        "other_disciplines": "",
        "address": "C H R U PONTCHAILLOU, 2 RUE HENRI LE GUILLOUX, 35033 RENNES CEDEX 9",
        "phone": "0299289184",
        "sexe": "Homme",
        "lat": 48.110899,
        "lon": -1.68365
    },
    {
        "name": "DENOUX Emmanuelle",
        "specialties": "Médecine générale",
        "other_disciplines": "",
        "address": "CENTRE DEPARTEMENTAL DE PMI, 1 AVENUE DE LA PREFECTURE, CS 24218, 35042 RENNES CEDEX",
        "phone": "",
        "sexe": "Femme",
        "lat": 48.127132,
        "lon": -1.693496
    },
    {
        "name": "BRIAND Mathilde",
        "specialties": "Médecine générale",
        "other_disciplines": "",
        "address": "ASSOCIATION SANTE AU TRAVAIL 35, 3 ALLEE DE LA CROIX DES HETRES, 35700 RENNES",
        "phone": "",
        "sexe": "Femme",
        "lat": 48.121547,
        "lon": -1.631365
    },
    {
        "name": "BASTIDE Helene",
        "specialties": "Gériatrie",
        "other_disciplines": "",
        "address": "CENTRE DE PREVENTION ACPAA RENNES, 26 BD DE BEAUMONT, 35000 RENNES",
        "phone": "",
        "sexe": "Femme",
        "lat": 48.103716,
        "lon": -1.673487
    },
    {
        "name": "JOUAN Justine",
        "specialties": "Médecine générale",
        "other_disciplines": "",
        "address": "46 BOULEVARD DE CLEUNAY, 35000 RENNES",
        "phone": "0223408181",
        "sexe": "Femme",
        "lat": 48.100725,
        "lon": -1.701506
    },
    {
        "name": "PARADIS Benedicte",
        "specialties": "Médecine générale",
        "other_disciplines": "",
        "address": "60 MAIL FRANCOIS MITTERRAND, 35000 RENNES",
        "phone": "0256680051",
        "sexe": "Femme",
        "lat": 48.109114,
        "lon": -1.692529
    },
    {
        "name": "GRUEL Yves",
        "specialties": "Médecine générale",
        "other_disciplines": "Validation d'un DPC Prescription de dispositif PPCDiplômes relatifs + réparation juridique du dommage corporel",
        "address": "3 RUE DUGUESCLIN, 35000 RENNES",
        "phone": "0299781650",
        "sexe": "Homme",
        "lat": 48.111711,
        "lon": -1.680813
    },
    {
        "name": "RIDOUX Isabelle",
        "specialties": "Médecine générale",
        "other_disciplines": "Hydrologie et climatologie médicale",
        "address": "CHRU PONTCHAILLOU, UNITE DE SOINS POUR SOURDS, LES MARRONIERS, 35033 RENNES CEDEX 9",
        "phone": "0299284321",
        "sexe": "Femme",
        "lat": 48.119161,
        "lon": -1.690997
    },
    {
        "name": "ARANDA GRAU Jose Hector",
        "specialties": "Médecine générale",
        "other_disciplines": "",
        "address": "OFII, 8 RUE JEAN JULIEN LEMORDANT, 35000 RENNES",
        "phone": "",
        "sexe": "Homme",
        "lat": 48.125875,
        "lon": -1.688891
    },
    {
        "name": "ROBERT Emmanuelle",
        "specialties": "Médecine générale",
        "other_disciplines": "",
        "address": "ICONE S.A., 83 BOULEVARD VOLTAIRE, 35000 RENNES",
        "phone": "0299317500",
        "sexe": "Femme",
        "lat": 48.105081,
        "lon": -1.7018
    },
    {
        "name": "LE BRIS Sophie",
        "specialties": "Santé publique et médecine sociale",
        "other_disciplines": "",
        "address": "ARS DE BRETAGNE, 6 PLACE DES COLOMBES, CS 14253, 35042 RENNES CEDEX",
        "phone": "",
        "sexe": "Femme",
        "lat": 48.104748,
        "lon": -1.682103
    },
    {
        "name": "OMARJEE Loukman",
        "specialties": "Médecine vasculaire",
        "other_disciplines": "Allergologie et immunologie cliniqueMédecine vasculaireAngéiologie",
        "address": "CHU PONTCHAILLOU, 2 RUE HENRI LE GUILLOUX, 35033 RENNES CEDEX 9",
        "phone": "",
        "sexe": "Homme",
        "lat": 48.11878,
        "lon": -1.693679
    },
    {
        "name": "LIME Denis",
        "specialties": "Psychiatrie",
        "other_disciplines": "",
        "address": "2 RUE DE TOULOUSE, 35000 RENNES",
        "phone": "0299783800",
        "sexe": "Homme",
        "lat": 48.112478,
        "lon": -1.680448
    },
    {
        "name": "GUYARD Pauline",
        "specialties": "Médecine générale",
        "other_disciplines": "",
        "address": "DEPARTEMENT 35, SERVICE PMI-AJE, 1 AVENUE DE LA PREFECTURE, CS 24218, 35042 RENNES CEDEX",
        "phone": "",
        "sexe": "Femme",
        "lat": 48.127132,
        "lon": -1.693496
    },
    {
        "name": "RATOVOARISOA Manuella",
        "specialties": "Médecine générale",
        "other_disciplines": "",
        "address": "HAD 35, 7 RUE J MAILLARD DE LA GOURNERIE, 35000 RENNES",
        "phone": "",
        "sexe": "Femme",
        "lat": 48.115742,
        "lon": -1.713642
    },
    {
        "name": "JOUBREL ISMAIL Dina",
        "specialties": "Psychiatrie",
        "other_disciplines": "Toxicomanies et alcoologie",
        "address": "6 RUE D ARGENTRE, 35000 RENNES",
        "phone": "0299518550",
        "sexe": "Femme",
        "lat": 48.109602,
        "lon": -1.681292
    },
    {
        "name": "BRILLANT Frederique",
        "specialties": "Gériatrie",
        "other_disciplines": "",
        "address": "CHU LA TAUVRAIS, S.S.R., RUE DE LA TAUVRAIS, 35033 RENNES CEDEX 9",
        "phone": "0299873026",
        "sexe": "Femme",
        "lat": 48.138242,
        "lon": -1.659274
    },
    {
        "name": "MOLINA Martin",
        "specialties": "Médecine générale",
        "other_disciplines": "",
        "address": "CDS RESEAU VILLE HOPITAL 35, LE SAMARA, 12 AVENUE DE POLOGNE, 35200 RENNES",
        "phone": "",
        "sexe": "Homme",
        "lat": 48.08727,
        "lon": -1.651322
    },
    {
        "name": "CAVELIER Daniel",
        "specialties": "Médecine générale",
        "other_disciplines": "",
        "address": "MAISON DE SANTE RENNES SUD, 11 AVENUE DE POLOGNE, 35200 RENNES",
        "phone": "0299506058",
        "sexe": "Homme",
        "lat": 48.088158,
        "lon": -1.650537
    },
    {
        "name": "GOUALIN Blandine",
        "specialties": "Médecine générale",
        "other_disciplines": "",
        "address": "88 RUE ALPHONSE GUERIN, 35000 RENNES",
        "phone": "",
        "sexe": "Femme",
        "lat": 48.109585,
        "lon": -1.656414
    },
    {
        "name": "HERVIAULT-BECHMANN Laurence",
        "specialties": "Médecine du travail",
        "other_disciplines": "",
        "address": "AST 35, 4 ALLEE DU BATIMENT, 35000 RENNES",
        "phone": "0223210505",
        "sexe": "Femme",
        "lat": 48.130966,
        "lon": -1.681998
    },
    {
        "name": "MUSELLEC-GABORIAU Aurelie",
        "specialties": "Médecine générale",
        "other_disciplines": "",
        "address": "CENTRE DEPARTEMENTAL DE PMI, SERVICE PMI-AJE, 1 AVENUE DE LA PREFECTURE, CS 24218, 35042 RENNES CEDEX",
        "phone": "",
        "sexe": "Femme",
        "lat": 48.127132,
        "lon": -1.693496
    },
    {
        "name": "LE GUILLOU Chloé",
        "specialties": "Médecine générale",
        "other_disciplines": "",
        "address": "POLYCLINIQUE ST LAURENT, 320 AVENUE GENERAL GEORGE PATTON, CS 10610, 35706 RENNES CEDEX 7",
        "phone": "",
        "sexe": "Femme",
        "lat": 48.137656,
        "lon": -1.658287
    },
    {
        "name": "PERLAT Thomas",
        "specialties": "Médecine générale",
        "other_disciplines": "",
        "address": "24 AVENUE HENRI FREVILLE, 35000 RENNES",
        "phone": "0299503655",
        "sexe": "Homme",
        "lat": 48.08726,
        "lon": -1.675349
    },
    {
        "name": "PATARD Pauline",
        "specialties": "Médecine générale",
        "other_disciplines": "",
        "address": "CENTRE DE SANTE ST HELIER, 54 RUE SAINT-HELIER, CS 74330, 35043 RENNES CEDEX",
        "phone": "0299295099",
        "sexe": "Femme",
        "lat": 48.106452,
        "lon": -1.669549
    },
    {
        "name": "CONAN Guillaume",
        "specialties": "Médecine générale",
        "other_disciplines": "",
        "address": "195 RUE DE NANTES, 35000 RENNES",
        "phone": "0299310206",
        "sexe": "Homme",
        "lat": 48.116782,
        "lon": -1.683477
    },
    {
        "name": "SAGET-GERARD Claire",
        "specialties": "Médecine générale",
        "other_disciplines": "Médecine d'urgence",
        "address": "CLINIQUE LA SAGESSE, 4 PLACE SAINT GUENOLE, CS 44345, 35043 RENNES CEDEX",
        "phone": "0299857562",
        "sexe": "Femme",
        "lat": 48.100804,
        "lon": -1.712399
    },
    {
        "name": "DORIS Brigitte",
        "specialties": "Médecine générale",
        "other_disciplines": "",
        "address": "2 PLACE DE BRETAGNE, 35000 RENNES",
        "phone": "0230969373",
        "sexe": "Femme",
        "lat": 48.109517,
        "lon": -1.684779
    },
    {
        "name": "ATTENOT Alexia",
        "specialties": "Médecine générale",
        "other_disciplines": "",
        "address": "EFS BRETAGNE, RUE PIERRE JEAN GINESTE, BP 91614, 35016 RENNES CEDEX",
        "phone": "",
        "sexe": "Femme",
        "lat": 48.120347,
        "lon": -1.699076
    },
    {
        "name": "ROSTAM Massy",
        "specialties": "Médecine générale",
        "other_disciplines": "",
        "address": "CHU PONTCHAILLOU, SAMU CENTRE 15, 2 RUE HENRI LE GUILLOUX, 35000 RENNES",
        "phone": "",
        "sexe": "Homme",
        "lat": 48.11878,
        "lon": -1.693679
    },
    {
        "name": "BUARD DEGUILHAUME Sabrina",
        "specialties": "Médecine générale",
        "other_disciplines": "",
        "address": "3 ALLEE ANGELIQUE DU COUDRAY, 35000 RENNES",
        "phone": "0230963110",
        "sexe": "Femme",
        "lat": 48.117521,
        "lon": -1.679795
    },
    {
        "name": "VAN DEN BROUCKE Julie",
        "specialties": "Médecine générale",
        "other_disciplines": "",
        "address": "CDS KERSANTE COURROUZE, 18 AVENUE JULES MANIEZ, 35000 RENNES",
        "phone": "",
        "sexe": "Femme",
        "lat": 48.098657,
        "lon": -1.697845
    },
    {
        "name": "FOULQUIER Arnaud",
        "specialties": "Médecine générale",
        "other_disciplines": "DIU Réparation juridique du dommage corporel",
        "address": "18 RUE DU BOURG NOUVEAU, 35000 RENNES",
        "phone": "0978810612",
        "sexe": "Homme",
        "lat": 48.113906,
        "lon": -1.718125
    },
    {
        "name": "RALECHE Dimitri",
        "specialties": "Médecine générale",
        "other_disciplines": "",
        "address": "6 AVENUE SIR WINSTON CHURCHILL, 35000 RENNES",
        "phone": "0299593294",
        "sexe": "Homme",
        "lat": 48.11789,
        "lon": -1.707701
    },
    {
        "name": "HAYET Patrick",
        "specialties": "Médecine générale",
        "other_disciplines": "",
        "address": "18 BOULEVARD OSCAR LEROUX, 35200 RENNES",
        "phone": "0299509390",
        "sexe": "Homme",
        "lat": 48.097194,
        "lon": -1.653987
    },
    {
        "name": "AUBIN Veronique",
        "specialties": "Médecine générale",
        "other_disciplines": "",
        "address": "3 PLACE ALBERT BAYET, 35200 RENNES",
        "phone": "",
        "sexe": "Femme",
        "lat": 48.085099,
        "lon": -1.692974
    },
    {
        "name": "GUÉGUEN Charlotte",
        "specialties": "Médecine générale",
        "other_disciplines": "",
        "address": "3 RUE DE LA HUGUENOTERIE, 35000 RENNES",
        "phone": "",
        "sexe": "Femme",
        "lat": 48.102212,
        "lon": -1.695204
    },
    {
        "name": "CORNILLON Alain",
        "specialties": "Médecine générale",
        "other_disciplines": "Médecine de catastropheMédecine d'urgence",
        "address": "S.D.I.S. 35, 2 RUE DU MOULIN DE JOUE, BP 80127, 35701 RENNES CEDEX 7",
        "phone": "0299876543",
        "sexe": "Homme",
        "lat": 48.11228,
        "lon": -1.646447
    },
    {
        "name": "FRANCOIS Christel",
        "specialties": "Médecine générale",
        "other_disciplines": "",
        "address": "POLYCLINIQUE SAINT LAURENT, 320 AVENUE GENERAL GEORGES PATTON, 35006 RENNES CEDEX",
        "phone": "",
        "sexe": "Femme",
        "lat": 48.137656,
        "lon": -1.658287
    },
    {
        "name": "DESMONTILS Anne-Marie",
        "specialties": "Médecine générale",
        "other_disciplines": "",
        "address": "CLINIQUE MUTUALISTE LA SAGESSE, 4 PLACE SAINT GUENOLE, 35000 RENNES",
        "phone": "0299857575",
        "sexe": "Femme",
        "lat": 48.100804,
        "lon": -1.712399
    },
    {
        "name": "PIERA Marianne",
        "specialties": "Médecine générale",
        "other_disciplines": "",
        "address": "CHU PONTCHAILLOU, 2 RUE HENRI LE GUILLOUX, 35033 RENNES CEDEX 9",
        "phone": "",
        "sexe": "Femme",
        "lat": 48.11878,
        "lon": -1.693679
    },
    {
        "name": "ROUXEL LE GUILLOU Sebastien",
        "specialties": "Médecine générale",
        "other_disciplines": "",
        "address": "5 ALLEE DU GACET, 35200 RENNES",
        "phone": "0299501902",
        "sexe": "Homme",
        "lat": 48.08563,
        "lon": -1.664894
    },
    {
        "name": "TURMEL Francois",
        "specialties": "Médecine générale",
        "other_disciplines": "DIU Médecine Morphologique et \"Anti-âge\"",
        "address": "6 RUE JACQUES GABRIEL, 35000 RENNES",
        "phone": "0223448434",
        "sexe": "Homme",
        "lat": 48.108545,
        "lon": -1.686405
    },
    {
        "name": "CAILLEAUX Marine",
        "specialties": "Médecine générale",
        "other_disciplines": "Pathologie infectieuse et tropicale, clinique et biologique",
        "address": "CHU PONTCHAILLOU, 2 RUE HENRI LE GUILLOUX, 35033 RENNES CEDEX 9",
        "phone": "0299284238",
        "sexe": "Femme",
        "lat": 48.11878,
        "lon": -1.693679
    },
    {
        "name": "CAPÉRAN Pauline",
        "specialties": "Médecine générale",
        "other_disciplines": "",
        "address": "3 RUE DUGUESCLIN, 35000 RENNES",
        "phone": "",
        "sexe": "Femme",
        "lat": 48.111711,
        "lon": -1.680813
    },
    {
        "name": "HELOU Justine",
        "specialties": "Médecine générale",
        "other_disciplines": "",
        "address": "155 AVENUE DU GENERAL LECLERC, 35700 RENNES",
        "phone": "0299368923",
        "sexe": "Femme",
        "lat": 48.11482,
        "lon": -1.655201
    },
    {
        "name": "ANDRES Emilie",
        "specialties": "Médecine générale",
        "other_disciplines": "",
        "address": "6 AVENUE SIR WINSTON CHURCHILL, 35000 RENNES",
        "phone": "0299593294",
        "sexe": "Femme",
        "lat": 48.11789,
        "lon": -1.707701
    },
    {
        "name": "LE GOUE Jeanne",
        "specialties": "Médecine générale",
        "other_disciplines": "",
        "address": "C.H.  GUILLAUME REGNIER RENNES, 108 AVENUE DU GENERAL LECLERC, BP 60321, 35000 RENNES",
        "phone": "",
        "sexe": "Femme",
        "lat": 48.114603,
        "lon": -1.651699
    },
    {
        "name": "COLLÉAUX Antoine",
        "specialties": "Médecine générale",
        "other_disciplines": "",
        "address": "CDS DES UNIVERSITES RENNES, CAMPUS BEAULIEU BATIMENT 21, 263 AVENUE GENERAL LECLERC, 35042 RENNES CEDEX",
        "phone": "",
        "sexe": "Homme",
        "lat": 48.11547,
        "lon": -1.636991
    },
    {
        "name": "LEMAITRE Morvan",
        "specialties": "Médecine générale",
        "other_disciplines": "",
        "address": "54 BOULEVARD GEORGES CLEMENCEAU, 35200 RENNES",
        "phone": "0223612665",
        "sexe": "Homme",
        "lat": 48.094309,
        "lon": -1.682663
    },
    {
        "name": "CARIMALO Émilie",
        "specialties": "Médecine générale",
        "other_disciplines": "",
        "address": "AEREA A, 16 RUE GEORGES CHARPAK, 35000 RENNES",
        "phone": "",
        "sexe": "Femme",
        "lat": 48.109862,
        "lon": -1.646833
    },
    {
        "name": "BOUMPOUTOU Rufin",
        "specialties": "Médecine générale",
        "other_disciplines": "",
        "address": "RENNES ORTHOSPORT, POLYCLINIQUE ST LAURENT, 320 AVENUE GENERAL GEORGE PATTON, 35700 RENNES",
        "phone": "",
        "sexe": "Homme",
        "lat": 48.137656,
        "lon": -1.658287
    },
    {
        "name": "POINSOT Morgane",
        "specialties": "Médecine générale",
        "other_disciplines": "",
        "address": "MDPH, 13 AVENUE DE CUCILLE, 35000 RENNES",
        "phone": "",
        "sexe": "Femme",
        "lat": 48.126017,
        "lon": -1.698249
    },
    {
        "name": "RAYNAUD Marion",
        "specialties": "Médecine générale",
        "other_disciplines": "",
        "address": "15 RUE EMILE SOUVESTRE, 35000 RENNES",
        "phone": "0299305538",
        "sexe": "Femme",
        "lat": 48.105961,
        "lon": -1.678219
    },
    {
        "name": "JAHIER Pascal",
        "specialties": "Médecine du travail",
        "other_disciplines": "",
        "address": "ORANGE SA, RUE DU PATIS TATELIN, ZAC DE ST SULPICE, 35700 RENNES",
        "phone": "",
        "sexe": "Homme",
        "lat": 48.124217,
        "lon": -1.657203
    },
    {
        "name": "MORAUX Francois-Xavier",
        "specialties": "Médecine générale",
        "other_disciplines": "",
        "address": "54 BOULEVARD GEORGES CLEMENCEAU, 35000 RENNES",
        "phone": "0223612665",
        "sexe": "Homme",
        "lat": 48.094309,
        "lon": -1.682663
    },
    {
        "name": "DE CHARRY Arnaud",
        "specialties": "Médecine générale",
        "other_disciplines": "Pratiques médico judiciaires",
        "address": "CHRU PONTCHAILLOU, 2 RUE HENRI LE GUILLOUX, 35033 RENNES CEDEX 9",
        "phone": "0299284321",
        "sexe": "Homme",
        "lat": 48.11878,
        "lon": -1.693679
    },
    {
        "name": "BLAS-LELOIX Veronique",
        "specialties": "Médecine du travail",
        "other_disciplines": "Angéiologie",
        "address": "S M E B T P C 35, 1 ALLEE DU BATIMENT, 35000 RENNES",
        "phone": "",
        "sexe": "Femme",
        "lat": 48.131201,
        "lon": -1.681424
    },
    {
        "name": "CORNEE Lucie",
        "specialties": "Gériatrie",
        "other_disciplines": "",
        "address": "CENTRE LONG SEJOUR LA TAUVRAIS RENNES, RUE DE LA TAUVRAIS, 35000 RENNES",
        "phone": "",
        "sexe": "Femme",
        "lat": 48.138242,
        "lon": -1.659274
    },
    {
        "name": "OLLIVIER Gaelle",
        "specialties": "Psychiatrie",
        "other_disciplines": "",
        "address": "BAT A, 163 AVENUE GENERAL GEORGE PATTON, 35700 RENNES",
        "phone": "0980912844",
        "sexe": "Femme",
        "lat": 48.131922,
        "lon": -1.662414
    },
    {
        "name": "POUTIER Clémence",
        "specialties": "Médecine générale",
        "other_disciplines": "",
        "address": "CDS DES UNIVERSITES RENNES, CAMPUS BEAULIEU BATIMENT 21, 263 AVENUE GENERAL LECLERC, 35042 RENNES CEDEX",
        "phone": "",
        "sexe": "Femme",
        "lat": 48.110899,
        "lon": -1.68365
    },
    {
        "name": "JAHIER Claire",
        "specialties": "Médecine générale",
        "other_disciplines": "",
        "address": "C.P.A.M. 35, COURS DES ALLIES, 35000 RENNES",
        "phone": "",
        "sexe": "Femme",
        "lat": 48.10528,
        "lon": -1.676035
    },
    {
        "name": "JOURNEAUX Nathalie",
        "specialties": "Médecine vasculaire",
        "other_disciplines": "Angéiologie",
        "address": "CHRU RENNES SITE PONTCHAILLOU, PONTCHAILLOU, 2 RUE HENRI LE GUILLOUX, 35000 RENNES",
        "phone": "",
        "sexe": "Femme",
        "lat": 48.11878,
        "lon": -1.693679
    },
    {
        "name": "COLIN Claire",
        "specialties": "Médecine générale",
        "other_disciplines": "",
        "address": "HAD 35, 7 ROUTE DE VEZIN, 35000 RENNES",
        "phone": "",
        "sexe": "Femme",
        "lat": 48.116066,
        "lon": -1.712213
    },
    {
        "name": "HELARD-JEZEQUEL Caroline",
        "specialties": "Médecine générale",
        "other_disciplines": "",
        "address": "POLE SOLID. CITOY. CULTURE / ENFANCE, 14 RUE SAINT YVES, CS 63126, 35031 RENNES CEDEX",
        "phone": "",
        "sexe": "Femme",
        "lat": 48.110673,
        "lon": -1.682858
    },
    {
        "name": "JEGU-RAID Francoise",
        "specialties": "Médecine générale",
        "other_disciplines": "",
        "address": "CABINET MEDICAL DES GAYEULLES, 7 RUE POULLART DES PLACES, 35700 RENNES",
        "phone": "",
        "sexe": "Femme",
        "lat": 48.129495,
        "lon": -1.659015
    },
    {
        "name": "MUSELLEC Jeanne",
        "specialties": "Médecine générale",
        "other_disciplines": "",
        "address": "CENTRE DE SANTE ST HELIER, 54 RUE SAINT-HELIER, CS 74330, 35043 RENNES CEDEX",
        "phone": "0299295099",
        "sexe": "Femme",
        "lat": 48.106452,
        "lon": -1.669549
    },
    {
        "name": "PETIAU Antoine",
        "specialties": "Médecine générale",
        "other_disciplines": "",
        "address": "CHU PONTCHAILLOU, 2 RUE HENRI LE GUILLOUX, 35033 RENNES CEDEX 9",
        "phone": "",
        "sexe": "Homme",
        "lat": 48.11878,
        "lon": -1.693679
    },
    {
        "name": "GRIMAUD Olivier",
        "specialties": "Santé publique et médecine sociale",
        "other_disciplines": "",
        "address": "ENSP, AVENUE LEON BERNARD, 35043 RENNES CEDEX",
        "phone": "",
        "sexe": "Homme",
        "lat": 48.117234,
        "lon": -1.700777
    },
    {
        "name": "GUILLAUD Miléna",
        "specialties": "Médecine générale",
        "other_disciplines": "",
        "address": "PERMANENCE 7J/7, 4 RUE J MAILLARD DE LA GOURNERIE, 35000 RENNES",
        "phone": "",
        "sexe": "Femme",
        "lat": 48.115818,
        "lon": -1.714368
    },
    {
        "name": "CARDINAL Marius",
        "specialties": "Médecine générale",
        "other_disciplines": "DU Réparation juridique de dommage corporel",
        "address": "43 RUE CHARLES GENIAUX, 35000 RENNES",
        "phone": "0299689475",
        "sexe": "Homme",
        "lat": 48.111996,
        "lon": -1.713671
    },
    {
        "name": "BODERGAT Emmanuel",
        "specialties": "Médecine générale",
        "other_disciplines": "",
        "address": "3 RUE DUGUESCLIN, 35000 RENNES",
        "phone": "0299781650",
        "sexe": "Homme",
        "lat": 48.111711,
        "lon": -1.680813
    },
    {
        "name": "MORIN Michel",
        "specialties": "Psychiatrie",
        "other_disciplines": "",
        "address": "2 RUE BROUSSAIS, 35000 RENNES",
        "phone": "0223207643",
        "sexe": "Homme",
        "lat": 48.117244,
        "lon": -1.675477
    },
    {
        "name": "GRUEN Mathilde",
        "specialties": "Médecine générale",
        "other_disciplines": "",
        "address": "CHU PONTCHAILLOU, PERMANENCE D'ACCES AUX SOINS DE SANTE, 2 RUE HENRI LE GUILLOUX, 35000 RENNES",
        "phone": "",
        "sexe": "Femme",
        "lat": 48.11878,
        "lon": -1.693679
    },
    {
        "name": "HUX Olivier",
        "specialties": "Médecine générale",
        "other_disciplines": "",
        "address": "6 AVENUE SIR WINSTON CHURCHILL, 35000 RENNES",
        "phone": "0299593294",
        "sexe": "Homme",
        "lat": 48.11789,
        "lon": -1.707701
    },
    {
        "name": "DUPUIS Solène",
        "specialties": "Médecine générale",
        "other_disciplines": "",
        "address": "MEDADOM MEDICAL, 4 RUE GUSTAVE FLAUBERT, 35000 RENNES",
        "phone": "",
        "sexe": "Femme",
        "lat": 48.100665,
        "lon": -1.666035
    },
    {
        "name": "DE LAVAL Marie",
        "specialties": "Médecine générale",
        "other_disciplines": "",
        "address": "7 RUE POULLART DES PLACES, 35700 RENNES",
        "phone": "0299122000",
        "sexe": "Femme",
        "lat": 48.129495,
        "lon": -1.659015
    },
    {
        "name": "PAILHERET Olivier",
        "specialties": "Médecine générale",
        "other_disciplines": "",
        "address": "9 AVENUE DE POLOGNE, 35200 RENNES",
        "phone": "0299506058",
        "sexe": "Homme",
        "lat": 48.089083,
        "lon": -1.65049
    },
    {
        "name": "MUSELLEC Emmanuelle",
        "specialties": "Médecine générale",
        "other_disciplines": "",
        "address": "C.H.G.R., U.S.L.D., 108 AVENUE DU GENERAL LECLERC, BP 60321, 35703 RENNES CEDEX 7",
        "phone": "0299333956",
        "sexe": "Femme",
        "lat": 48.114603,
        "lon": -1.651699
    },
    {
        "name": "GOURVENEC Charlotte",
        "specialties": "Médecine générale",
        "other_disciplines": "",
        "address": "CLINIQUE SAINT YVES, 4 RUE ADOLPHE LERAY, CS 54435, 35044 RENNES CEDEX",
        "phone": "",
        "sexe": "Femme",
        "lat": 48.102126,
        "lon": -1.661746
    },
    {
        "name": "LANDAIS Herveline",
        "specialties": "Médecine générale",
        "other_disciplines": "",
        "address": "DIRECTION SANTE PUBLIQUE HANDICAP, SERVICE SANTE ENFANCE, 14 RUE SAINT YVES, CS 63126, 35031 RENNES CEDEX",
        "phone": "",
        "sexe": "Femme",
        "lat": 48.110899,
        "lon": -1.68365
    },
    {
        "name": "DELOBRE Gaylord",
        "specialties": "Médecine générale",
        "other_disciplines": "Médecine tropicaleDIU Médecine Manuelle et d'Ostéopathie",
        "address": "CDS RESEAU VILLE HOPITAL 35, LE SAMARA, 12 AVENUE DE POLOGNE, 35200 RENNES",
        "phone": "0299324736",
        "sexe": "Homme",
        "lat": 48.08727,
        "lon": -1.651322
    },
    {
        "name": "THOMAZON Martine",
        "specialties": "Médecine générale",
        "other_disciplines": "",
        "address": "61 RUE DE PARIS, 35000 RENNES",
        "phone": "0299380055",
        "sexe": "Femme",
        "lat": 48.112782,
        "lon": -1.664583
    },
    {
        "name": "PERCHAIS-LEROY Marie-Laure",
        "specialties": "Médecine vasculaire",
        "other_disciplines": "Angéiologie",
        "address": "53 RUE JULES VALLES, 35000 RENNES",
        "phone": "0299438790",
        "sexe": "Femme",
        "lat": 48.104384,
        "lon": -1.710047
    },
    {
        "name": "TRONEL Sebastien",
        "specialties": "Médecine générale",
        "other_disciplines": "",
        "address": "CABINET ANATOLE FRANCE, 27 AV DU 41E REGIMENT D INFANTERIE, 35000 RENNES",
        "phone": "0230964737",
        "sexe": "Homme",
        "lat": 48.118457,
        "lon": -1.688831
    },
    {
        "name": "SCHOLTES Charlotte",
        "specialties": "Médecine générale",
        "other_disciplines": "",
        "address": "C.H.G.R., 108 AVENUE DU GENERAL LECLERC, BP 60321, 35703 RENNES CEDEX 7",
        "phone": "",
        "sexe": "Femme",
        "lat": 48.114603,
        "lon": -1.651699
    },
    {
        "name": "PLUCHE-CULLERRE Violaine",
        "specialties": "Médecine générale",
        "other_disciplines": "",
        "address": "49 BOULEVARD DE LA LIBERTE, 35000 RENNES",
        "phone": "",
        "sexe": "Femme",
        "lat": 48.108264,
        "lon": -1.683688
    },
    {
        "name": "TREHOT Jacques",
        "specialties": "Neuro-psychiatrie",
        "other_disciplines": "",
        "address": "11 RUE DE JUILLET, 35000 RENNES",
        "phone": "",
        "sexe": "Homme",
        "lat": 48.112767,
        "lon": -1.685114
    },
    {
        "name": "GUIMARD Valerie",
        "specialties": "Médecine générale",
        "other_disciplines": "",
        "address": "32 RUE GLAIS BIZOIN, 35000 RENNES",
        "phone": "",
        "sexe": "Femme",
        "lat": 48.095575,
        "lon": -1.668587
    },
    {
        "name": "VAREILLES Louis",
        "specialties": "Médecine générale",
        "other_disciplines": "",
        "address": "SDIS 35, 2 RUE DU MOULIN DE JOUE, 35700 RENNES",
        "phone": "",
        "sexe": "Homme",
        "lat": 48.11228,
        "lon": -1.646447
    },
    {
        "name": "ROLLAND Pauline",
        "specialties": "Médecine générale",
        "other_disciplines": "",
        "address": "8 RUE BERTHE SAVERY, 35000 RENNES",
        "phone": "",
        "sexe": "Femme",
        "lat": 48.109467,
        "lon": -1.646652
    },
    {
        "name": "LOQUIN Delphine",
        "specialties": "Médecine générale",
        "other_disciplines": "",
        "address": "CDS POLYVALENT INWE'CARE, 3 BD DE LA TOUR D AUVERGNE, 35000 RENNES",
        "phone": "",
        "sexe": "Femme",
        "lat": 48.10795,
        "lon": -1.68431
    },
    {
        "name": "HUGBART Chloe",
        "specialties": "Médecine générale",
        "other_disciplines": "Médecine légale et expertises médicales",
        "address": "43 RUE CHARLES GENIAUX, 35000 RENNES",
        "phone": "0299689475",
        "sexe": "Femme",
        "lat": 48.111996,
        "lon": -1.713671
    },
    {
        "name": "SAILLARD Charlene",
        "specialties": "Médecine générale",
        "other_disciplines": "",
        "address": "CLINIQUE MUTUALISTE DE LA SAGESSE, 4 PLACE ST GUENOLE, 1319, 35043 RENNES CEDEX",
        "phone": "",
        "sexe": "Femme",
        "lat": 48.100804,
        "lon": -1.712399
    },